,objectid,name,address,city,state,zip,population,county,countyfips,latitude,longitude,naics_desc,geometry,index_right,STATEFP,COUNTYFP,TRACTCE,GEOID,centroid_lat,centroid_lon,hdistance,distance_km,distance_minutes,distance_ratio,imputation,distance_minutes_imp
0,46056,SPROUTS ACADEMY,350 W ONTARIO ST FL 1,CHICAGO,IL,60654,72,COOK,17031,41.89332,-87.63763,CHILD DAY CARE CENTERS,POINT (-87.63763 41.89332),1667,17,031,081800,17031081800,41.89326840361561,-87.63780051223728,0.00947689043809174,1.003,4.75,105.83640346505507,0,4.75
1,45844,SMART LEARNING CENTER,2841 S ARCHER AVE,CHICAGO,IL,60608,69,COOK,17031,41.84257,-87.65553,CHILD DAY CARE CENTERS,POINT (-87.65553 41.84257),1443,17,031,600600,17031600600,41.84238527193596,-87.6555817583142,0.01305254116003262,2.246,5.883333333333334,172.0737726441605,0,5.883333333333334
2,46226,CGH HELPING HANDS DAYCARE,1813 2ND AVE,STERLING,IL,61081,75,WHITESIDE,17195,41.80449,-89.69567,CHILD DAY CARE CENTERS,POINT (-89.69567 41.80449),455,17,195,001101,17195001101,41.80446660835237,-89.6953996424685,0.014032955332364077,10.983,10.416666666666666,782.6576611891586,0,10.416666666666666
3,46088,TOTS N TALES PRESCHOOL II,5784 S ARCHER AVE,CHICAGO,IL,60638,33,COOK,17031,41.79641,-87.75784,CHILD DAY CARE CENTERS,POINT (-87.75784 41.79641),1360,17,031,560700,17031560700,41.796462648006845,-87.75752018519911,0.016888675065975706,3.178,5.233333333333333,188.17343501400345,0,5.233333333333333
4,46067,SMART LEARNING CENTER,2980 S ARCHER AVE,CHICAGO,IL,60608,71,COOK,17031,41.84061,-87.66059,CHILD DAY CARE CENTERS,POINT (-87.66059 41.84061),907,17,031,600700,17031600700,41.84083140580563,-87.66074501263894,0.017272091854879497,2.324,5.933333333333334,134.55231824415364,0,5.933333333333334
5,45981,PRAIRIELAND MONTESSORI,1655 W SCHOOL ST,CHICAGO,IL,60657,38,COOK,17031,41.94127,-87.67091,CHILD DAY CARE CENTERS,POINT (-87.67091 41.94127),1772,17,031,062500,17031062500,41.94148802612662,-87.67110725178321,0.018177031887633456,0.853,2.7,46.92735344653981,0,2.7
6,44324,OUR LOVING ARMS CHILDCARE INC NUMBER 3,831 S HALSTED ST,CHICAGO HTS,IL,60411,61,COOK,17031,41.5164,-87.63522,CHILD DAY CARE CENTERS,POINT (-87.63522 41.5164),2708,17,031,828900,17031828900,41.51616310078021,-87.6349516907073,0.02148452877937725,1.838,3.966666666666667,85.549933111136,0,3.966666666666667
7,46346,KIDZ CREATIVE CORNER,3811 NORTH LINCOLN AVENUE,CHICAGO,IL,60613,49,COOK,17031,41.95095,-87.67609,CHILD DAY CARE CENTERS,POINT (-87.67609 41.95095),1468,17,031,050600,17031050600,41.95054775751128,-87.67618236992418,0.028224904491801758,0.419,1.6666666666666667,14.845045804201154,0,1.6666666666666667
8,46144,LAKEFRONT CHILDREN'S ACADEMY,400 E RANDOLPH ST FL 6B,CHICAGO,IL,60601,58,COOK,17031,41.88458,-87.61733,CHILD DAY CARE CENTERS,POINT (-87.61733 41.88458),319,17,031,320101,17031320101,41.88493065219858,-87.6170157127858,0.029157583347524423,2.901,8.55,99.49384231962779,0,8.55
9,46321,ROSELAND COMMUNITY GOOD NEWS DAY CARE,212 W 113TH ST,CHICAGO,IL,60628,52,COOK,17031,41.6891,-87.62834,CHILD DAY CARE CENTERS,POINT (-87.62834 41.6891),1353,17,031,491300,17031491300,41.688896901011866,-87.62780358662054,0.031064533686900337,0.044,0.13333333333333333,1.416406260704774,0,0.13333333333333333
10,45111,UNIVERSITY INFANT AND PRESCHOOL CENTER,HORRABIN HALL ROOMS 15 AND 17,MACOMB,IL,61455,32,MCDONOUGH,17109,40.4717,-90.685,CHILD DAY CARE CENTERS,POINT (-90.685 40.4717),2954,17,109,980000,17109980000,40.47142604844896,-90.68452819660925,0.03123034927504793,30.393,24.65,973.187963167708,0,24.65
11,45344,THE GUADALUPE REYES CHILDREN AND FAMILY C.,1951 W. 19TH STREET,CHICAGO,IL,60608,189,COOK,17031,41.85584,-87.67529,CHILD DAY CARE CENTERS,POINT (-87.67529 41.85584),1916,17,031,310900,17031310900,41.85577165360454,-87.67467409535566,0.03208021769006728,1.143,3.6166666666666667,35.62943403447967,0,3.6166666666666667
12,46147,MARILLAC SOCIAL CENTER,212 S FRANCISCO AVE,CHICAGO,IL,60612,294,COOK,17031,41.87798,-87.69917,CHILD DAY CARE CENTERS,POINT (-87.69917 41.87798),2178,17,031,837000,17031837000,41.87832338220738,-87.69867387851903,0.03488425351161747,1.353,3.3833333333333333,38.785407850261485,0,3.3833333333333333
13,45524,CONTEMPORARY PRESCHOOL,1400 N LAKE SHORE DR,CHICAGO,IL,60610,92,COOK,17031,41.90804,-87.62647,CHILD DAY CARE CENTERS,POINT (-87.62647 41.90804),873,17,031,080100,17031080100,41.907548786122454,-87.62678998462535,0.03775813628284678,3.576,5.016666666666667,94.70806432849676,0,5.016666666666667
14,44404,INTERCULTURAL MONTESSORI LANGUAGE SCHOOL,"114 S RACINE AVE, STE 100",CHICAGO,IL,60607,32,COOK,17031,41.87963,-87.65742,CHILD DAY CARE CENTERS,POINT (-87.65742 41.87963),2268,17,031,833100,17031833100,41.879077672803604,-87.65704585101493,0.04278709388451943,0.062,0.18333333333333332,1.4490350797681049,0,0.18333333333333332
15,45508,NEW GENERATION EDUCATOR LLC ASHLAND,3016 N ASHLAND AVE,CHICAGO,IL,60657,205,COOK,17031,41.93643,-87.6704,CHILD DAY CARE CENTERS,POINT (-87.6704 41.93643),1773,17,031,062600,17031062600,41.93597520220608,-87.6709842607829,0.04351175216164095,0.476,1.6666666666666667,10.939573249813451,0,1.6666666666666667
16,44034,DIST. NUMBER 65 SCH.AGE CHILD CARE WILLARD SCH.,2700 HURD AVE,EVANSTON,IL,60201,55,COOK,17031,42.06664,-87.71658,CHILD DAY CARE CENTERS,POINT (-87.71658 42.06664),292,17,031,808900,17031808900,42.06651486146721,-87.71747104931215,0.046564744872135085,0.106,0.43333333333333335,2.276400317258727,0,0.43333333333333335
17,43785,MANSKERS LOVING DAY CARE CENTER,361 TORRENCE AVE,CALUMET CITY,IL,60409,58,COOK,17031,41.6267,-87.5592,CHILD DAY CARE CENTERS,POINT (-87.5592 41.6267),974,17,031,825802,17031825802,41.62637970101121,-87.56005885621325,0.049624344638076245,0.104,0.36666666666666664,2.095745561145444,0,0.36666666666666664
18,46234,THE SALVATION ARMY RED SHIELD HDST PRGM,945 W 69TH ST,CHICAGO,IL,60621,59,COOK,17031,41.76871,-87.64838,CHILD DAY CARE CENTERS,POINT (-87.64838 41.76871),944,17,031,681100,17031681100,41.7687665278746,-87.64935954801619,0.05068374437498771,0.839,1.6166666666666667,16.553630958924263,0,1.6166666666666667
19,45712,TAYLOR CENTER FOR NEW EXPERIENCES,1633 NORTH HAMLIN,CHICAGO,IL,60647,93,COOK,17031,41.91112,-87.72122,CHILD DAY CARE CENTERS,POINT (-87.72122 41.91112),1645,17,031,230400,17031230400,41.911820201081476,-87.72155193810806,0.05135654498106237,1.806,5.133333333333334,35.16591703483868,0,5.133333333333334
20,46422,MCCORMICK TRIBUNE YMCA,1834 N LAWNDALE,CHICAGO,IL,60647,48,COOK,17031,41.91489,-87.71965,CHILD DAY CARE CENTERS,POINT (-87.71965 41.91489),1630,17,031,222900,17031222900,41.91556435214301,-87.72007440938823,0.05150493950950975,1.24,4.483333333333333,24.075360767505597,0,4.483333333333333
21,45503,CITY GARDEN WALDORF SCHOOL,920 W 19TH ST,CHICAGO,IL,60608,73,COOK,17031,41.85689,-87.64912,CHILD DAY CARE CENTERS,POINT (-87.64912 41.85689),1349,17,031,310300,17031310300,41.8561439577304,-87.64897823817081,0.0521160459282246,0.936,3.1166666666666667,17.959919700912852,0,3.1166666666666667
22,45501,A STEP AHEAD LEARNING CENTER,4208 N BROADWAY ST NUMBER 20,CHICAGO,IL,60613,70,COOK,17031,41.95883,-87.6535,CHILD DAY CARE CENTERS,POINT (-87.6535 41.95883),1702,17,031,032100,17031032100,41.95815388295838,-87.65301789121118,0.052932895759484476,1.734,4.8,32.75845719604908,0,4.8
23,45823,THE LITTLE RED WAGON,3001 W LAFAYETTE AVE,JACKSONVILLE,IL,62650,131,MORGAN,17137,39.7373267,-90.2718913,CHILD DAY CARE CENTERS,POINT (-90.2718913 39.7373267),2951,17,137,951900,17137951900,39.737205267306294,-90.2728872599862,0.05363546282773289,24.679,18.833333333333332,460.1246768255612,0,18.833333333333332
24,44230,BRIGHT HORIZONS AT WESTERN SPRINGS,4700 COMMONWEALTH AVE,WESTERN SPRGS,IL,60558,211,COOK,17031,41.80384,-87.90816,CHILD DAY CARE CENTERS,POINT (-87.90816 41.80384),1108,17,031,819900,17031819900,41.804181046740524,-87.90715786658184,0.05679950116234123,1.986,3.683333333333333,34.96509580821358,0,3.683333333333333
25,44769,"ALL ABOUT KIDS, CHILD CARE, INC.",485 N COMMONS DR,AURORA,IL,60504,87,DUPAGE,17043,41.76259,-88.21982,CHILD DAY CARE CENTERS,POINT (-88.21982 41.76259),1914,17,043,846509,17043846509,41.761837985205226,-88.21932353726723,0.05797955099195409,2.362,5.15,40.73850106786405,0,5.15
26,46093,KINDERCARE LEARNING CENTERS 301788,1733 N MARCEY ST,CHICAGO,IL,60614,119,COOK,17031,41.91431,-87.65502,CHILD DAY CARE CENTERS,POINT (-87.65502 41.91431),246,17,031,832600,17031832600,41.91474920450523,-87.65405513068569,0.058216786688742,0.364,1.2666666666666666,6.252492119603546,0,1.2666666666666666
27,45348,ERIE NEIGHBORHOOD HOUSE,1313 N CLAREMONT AVE,CHICAGO,IL,60622,90,COOK,17031,41.90609,-87.68546,CHILD DAY CARE CENTERS,POINT (-87.68546 41.90609),1769,17,031,241200,17031241200,41.90670706354112,-87.6846857518279,0.05839636084459945,0.797,2.9166666666666665,13.64811074650566,0,2.9166666666666665
28,46216,JULIE'S MONTESSORI PRE - SCHOOL,3400 6TH AVENUE,STERLING,IL,61081,40,WHITESIDE,17195,41.820121,-89.688681,CHILD DAY CARE CENTERS,POINT (-89.688681 41.820121),3245,17,195,000900,17195000900,41.81935030825016,-89.68917703814358,0.05912182822469921,9.616,7.583333333333333,162.64720305084785,0,7.583333333333333
29,46421,EARLY LEARNING FOUNDATIONS PRESCHOOL,1455 N CLARK ST,CHICAGO,IL,60610,34,COOK,17031,41.90873,-87.63153,CHILD DAY CARE CENTERS,POINT (-87.63153 41.90873),2552,17,031,080201,17031080201,41.909497569694565,-87.63100510505922,0.05957054858284664,2.076,4.65,34.84943565884476,0,4.65
30,45516,RISE UP EARLY CHILDHOOD,1257 W LOYOLA AVE,CHICAGO,IL,60626,16,COOK,17031,42.00119,-87.66329,CHILD DAY CARE CENTERS,POINT (-87.66329 42.00119),2158,17,031,010503,17031010503,42.00032071943175,-87.66312616252857,0.0607127698580983,1.443,4.416666666666667,23.76765223152675,0,4.416666666666667
31,45259,GADS HILL CENTER AFTER SCHOOL,1919 WEST CULLERTON,CHICAGO,IL,60608,74,COOK,17031,41.85494,-87.67424,CHILD DAY CARE CENTERS,POINT (-87.67424 41.85494),1916,17,031,310900,17031310900,41.85577165360454,-87.67467409535566,0.06171765894318736,1.914,5.766666666666667,31.012193799539357,0,5.766666666666667
32,45542,FORESIGHT CHILDREN LEARNING CENTER,101 E 69TH ST NUMBER 115,CHICAGO,IL,60637,86,COOK,17031,41.76908,-87.62141,CHILD DAY CARE CENTERS,POINT (-87.62141 41.76908),1937,17,031,690400,17031690400,41.76925900891923,-87.62020386941192,0.06344114788510419,0.784,2.183333333333333,12.357910065244598,0,2.183333333333333
33,45588,NORTHWESTERN UNIVERSITY SETTLEMENT - ROWE,1420 W AUGUSTA BLVD,CHICAGO,IL,60642,60,COOK,17031,41.90003,-87.6637,CHILD DAY CARE CENTERS,POINT (-87.6637 41.90003),903,17,031,242000,17031242000,41.89973715025454,-87.66495365214334,0.06764466347236889,0.465,1.7166666666666666,6.8741564541885944,0,1.7166666666666666
34,43561,MARSHALL FIRST STEP ACADEMY,1414 ARCHER AVE,MARSHALL,IL,62441,40,CLARK,17023,39.39467,-87.68668,CHILD DAY CARE CENTERS,POINT (-87.68668 39.39467),518,17,023,060200,17023060200,39.39547533238009,-87.68595078866078,0.0679856651585787,26.211,21.316666666666666,385.537156088155,0,21.316666666666666
35,45939,THE NEXT GENERATION DAYCARE CENTER INC,21 E 59TH ST,CHICAGO,IL,60637,43,COOK,17031,41.78708,-87.62456,CHILD DAY CARE CENTERS,POINT (-87.62456 41.78708),666,17,031,834500,17031834500,41.78808233246706,-87.62473600135581,0.06992039689752058,0.829,2.566666666666667,11.856340020709991,0,2.566666666666667
36,45208,LITTLE BEAR CHILD DEVELOPMENT CENTER,653 PORTER ST,WAUKEGAN,IL,60085,82,LAKE,17097,42.36553,-87.83916,CHILD DAY CARE CENTERS,POINT (-87.83916 42.36553),2622,17,097,862401,17097862401,42.365670925816254,-87.84051716251479,0.07003942759453699,3.572,6.85,50.99984569660607,0,6.85
37,45967,SEEDS OF JOY DAYCARE AND FITNESS CTR INC,"850 W EASTWOOD AVE, STE 1",CHICAGO,IL,60640,36,COOK,17031,41.96666,-87.65136,CHILD DAY CARE CENTERS,POINT (-87.65136 41.96666),2198,17,031,031501,17031031501,41.96728856744478,-87.65243426432005,0.07030265263018029,1.299,3.85,18.47725443353116,0,3.85
38,46322,NEW EINSTEINS ACADEMY,1858 N DAMEN AVE,CHICAGO,IL,60647,45,COOK,17031,41.91561,-87.67786,CHILD DAY CARE CENTERS,POINT (-87.67786 41.91561),2113,17,031,831000,17031831000,41.914798120094204,-87.67699655114818,0.07161359357672195,0.55,2.683333333333333,7.680106143685798,0,2.683333333333333
39,45550,THE LOVE LEARNING CENTER DAY CARE,228 E 61ST ST,CHICAGO,IL,60637,94,COOK,17031,41.78384,-87.62009,CHILD DAY CARE CENTERS,POINT (-87.62009 41.78384),1116,17,031,400800,17031400800,41.782863300673334,-87.62055800627418,0.07173853916560322,1.051,2.533333333333333,14.650423778129111,0,2.533333333333333
40,44887,CREATIVE DAY LEARNING CENTER,215 S LINCOLN ST,LOMBARD,IL,60148,20,DUPAGE,17043,41.88321,-88.02115,CHILD DAY CARE CENTERS,POINT (-88.02115 41.88321),702,17,043,843500,17043843500,41.882273873263706,-88.02178829528039,0.0726147760376779,1.93,4.5,26.578612581529878,0,4.5
41,46392,"THE UNIVERSITY CHILDCARE OF CHICAGO, INC",448 - 454 E 61ST STREET 1ST FL,CHICAGO,IL,60637,54,COOK,17031,41.78401,-87.61373,CHILD DAY CARE CENTERS,POINT (-87.61373 41.78401),1446,17,031,420600,17031420600,41.78301351215574,-87.6132776944952,0.07276524812492237,1.313,2.466666666666667,18.044327942726998,0,2.466666666666667
42,43884,DECATUR DAY CARE CENTER,2074 E LAKE SHORE DRIVE,DECATUR,IL,62521,149,MACON,17115,39.82827,-88.92915,CHILD DAY CARE CENTERS,POINT (-88.92915 39.82827),2665,17,115,001200,17115001200,39.82867965817135,-88.930414353477,0.07289276463107386,16.238,15.966666666666667,222.76559384438292,0,15.966666666666667
43,43920,GLENVIEW COMMUNITY CHURCH NURSERY SCHOOL,1000 ELM STREET,GLENVIEW,IL,60025,94,COOK,17031,42.07293,-87.81044,CHILD DAY CARE CENTERS,POINT (-87.81044 42.07293),1273,17,031,802100,17031802100,42.0722617927027,-87.81154438063022,0.07315205666798207,0.17,0.6666666666666666,2.3239264587130513,0,0.6666666666666666
44,46333,NEW GENERATION EDUCATOR LLC (DBA IGELC),1455 SOUTH MICHIGAN AVE,CHICAGO,IL,60605,267,COOK,17031,41.86255,-87.62362,CHILD DAY CARE CENTERS,POINT (-87.62362 41.86255),326,17,031,330102,17031330102,41.86357211553256,-87.62398831496843,0.07319860094969857,2.436,8.366666666666667,33.27932458263782,0,8.366666666666667
45,45566,LITTLE LEADERS ACADEMY,1856 W 69TH ST NUMBER 58,CHICAGO,IL,60636,20,COOK,17031,41.76848,-87.671001,CHILD DAY CARE CENTERS,POINT (-87.671001 41.76848),1985,17,031,671500,17031671500,41.768172252118696,-87.66963136796915,0.07379344671649493,1.431,3.433333333333333,19.391965867886896,0,3.433333333333333
46,46175,SINAI PRESCHOOL,15 W DELAWARE PL,CHICAGO,IL,60610,36,COOK,17031,41.89916,-87.62895,CHILD DAY CARE CENTERS,POINT (-87.62895 41.89916),1761,17,031,081100,17031081100,41.90022117745829,-87.62910486945233,0.07383065458597289,0.651,2.716666666666667,8.817475663065348,0,2.716666666666667
47,44007,KIDZ KORNER DAYCARE AND KIDZ ZONE AFT S.C.,246 S 13TH AVE,MAYWOOD,IL,60153,24,COOK,17031,41.88434,-87.84926,CHILD DAY CARE CENTERS,POINT (-87.84926 41.88434),1660,17,031,817300,17031817300,41.88408132010722,-87.84784808199684,0.07487563905110778,0.561,1.7,7.492423531999225,0,1.7
48,45866,VILLAGE OF HOPE LEARNING CENTER,1400 S KOLIN AVE NUMBER 1408,CHICAGO,IL,60623,70,COOK,17031,41.86214,-87.73392,CHILD DAY CARE CENTERS,POINT (-87.73392 41.86214),1249,17,031,290900,17031290900,41.862410315106544,-87.73245668751481,0.07766307271808603,2.057,5.866666666666666,26.486204163809365,0,5.866666666666666
49,45923,LAKE SHORE SCHOOLS ROGERS PARK,6759 N GREENVIEW AVE,CHICAGO,IL,60626,208,COOK,17031,42.00517,-87.66795,"CHILD DAY CARE, BEFORE OR AFTER SCHOOL, SEPARATE FROM SCHOOLS",POINT (-87.66795 42.00517),1398,17,031,010600,17031010600,42.006277592259714,-87.66768304345423,0.0778282643479728,1.218,5.433333333333334,15.64984148373502,0,5.433333333333334
50,44379,"ALPHABET LEARNING CENTER 3, INC.",6958 W WINDSOR AVE,BERWYN,IL,60402,81,COOK,17031,41.83207,-87.79738,CHILD DAY CARE CENTERS,POINT (-87.79738 41.83207),2742,17,031,815400,17031815400,41.83137044188369,-87.79619105095244,0.07807617440449069,0.203,1.1333333333333333,2.600024931399868,0,1.1333333333333333
51,44495,THE GODDARD SCHOOL,9651 GROSS POINT RD,SKOKIE,IL,60076,188,COOK,17031,42.05645,-87.73799,CHILD DAY CARE CENTERS,POINT (-87.73799 42.05645),1267,17,031,806801,17031806801,42.05638138669192,-87.73953789426925,0.07963488332108178,0.825,3.183333333333333,10.359781613211673,0,3.183333333333333
52,45738,BRIDGEPORT / SUMNER ERBA HEAD START,832 MADISON ST,BRIDGEPORT,IL,62417,17,LAWRENCE,17101,38.71027,-87.76453,"HEAD START PROGRAMS, SEPARATE FROM SCHOOLS",POINT (-87.76453 38.71027),812,17,101,880900,17101880900,38.70990417259561,-87.76593219237441,0.07979813834090016,15.549,13.3,194.85416982504256,0,13.3
53,43689,HOWARD MOHR COMMUNITY CENTER,7640 JACKSON BLVD,FOREST PARK,IL,60130,60,COOK,17031,41.87541,-87.81548,CHILD DAY CARE CENTERS,POINT (-87.81548 41.87541),2748,17,031,816000,17031816000,41.87637580523915,-87.81634729304068,0.08035964050832753,1.883,4.466666666666667,23.432160573252787,0,4.466666666666667
54,45973,LEARNING THROUGH PLAY CHILD DEV CENTER,4310 W FULLERTON AVE,CHICAGO,IL,60639,49,COOK,17031,41.9246,-87.73455,CHILD DAY CARE CENTERS,POINT (-87.73455 41.9246),1641,17,031,200300,17031200300,41.92348054196371,-87.7341263764247,0.08044053985407006,1.532,5.083333333333333,19.0451233019974,0,5.083333333333333
55,46108,METROPOLITAN FAMILY SERVICES LOOMIS,5338 S LOOMIS BLVD,CHICAGO,IL,60609,122,COOK,17031,41.79658,-87.66003,"CHILD DAY CARE, BEFORE OR AFTER SCHOOL, SEPARATE FROM SCHOOLS",POINT (-87.66003 41.79658),993,17,031,611900,17031611900,41.797743083280515,-87.65982263907897,0.08115492547488215,1.543,4.116666666666666,19.013017274935038,0,4.116666666666666
56,45849,LINCOLN PARK PREPARATORY,108 W GERMANIA PL,CHICAGO,IL,60610,87,COOK,17031,41.91038,-87.63206,CHILD DAY CARE CENTERS,POINT (-87.63206 41.91038),2552,17,031,080201,17031080201,41.909497569694565,-87.63100510505922,0.08169322807394638,3.84,5.65,47.00512013705887,0,5.65
57,44764,WORD OF LIFE EV. LUTHERAN CHURCH,879 TUDOR DR,NAPERVILLE,IL,60563,20,DUPAGE,17043,41.7849,-88.19557,CHILD DAY CARE CENTERS,POINT (-88.19557 41.7849),2457,17,043,846412,17043846412,41.784316298407724,-88.19417936221646,0.08230466824481436,0.199,0.9833333333333333,2.4178458433010945,0,0.9833333333333333
58,45353,THE MOLINE KIDS CAMPUS LLC,1505 7TH ST,MOLINE,IL,61265,102,ROCK ISLAND,17161,41.49777,-90.52818,CHILD DAY CARE CENTERS,POINT (-90.52818 41.49777),1363,17,161,022200,17161022200,41.49888839022627,-90.52872368281916,0.08232409677744079,5.194,8.566666666666666,63.09209822297507,0,8.566666666666666
59,46157,PARK WEST COOPERATIVE NURSERY SCHOOL,2214 N BISSELL ST,CHICAGO,IL,60614,60,COOK,17031,41.92226,-87.65255,CHILD DAY CARE CENTERS,POINT (-87.65255 41.92226),1873,17,031,071100,17031071100,41.92177782219817,-87.65106140314478,0.0835543342285213,0.569,2.683333333333333,6.809939966055904,0,2.683333333333333
60,44547,OAK PARK AND RIVER FOREST DAY NURSERY,1139 RANDOLPH STREET,OAK PARK,IL,60302,77,COOK,17031,41.88319,-87.80404,CHILD DAY CARE CENTERS,POINT (-87.80404 41.88319),2318,17,031,812801,17031812801,41.88318784606665,-87.80241466166318,0.0836979771787148,0.564,1.6,6.738514107643578,0,1.6
61,45975,L AND L LUVABLE DAY CARE INC,2540 E 83RD ST,CHICAGO,IL,60617,23,COOK,17031,41.74467,-87.56208,CHILD DAY CARE CENTERS,POINT (-87.56208 41.74467),1176,17,031,460400,17031460400,41.74449055811051,-87.56369222540243,0.08412308207231908,0.979,2.4833333333333334,11.637709602203726,0,2.4833333333333334
62,46105,FIFTH CITY CHILD DEVEL INSTITUTE INCORP.,3411 W 5TH AVE BLDG C,CHICAGO,IL,60624,88,COOK,17031,41.87676,-87.71179,CHILD DAY CARE CENTERS,POINT (-87.71179 41.87676),924,17,031,271400,17031271400,41.87724292757804,-87.71333137218642,0.08612313679728338,1.895,5.066666666666666,22.00337877219278,0,5.066666666666666
63,45857,NEW AGE CHILDREN'S PREPARATOR ACADEMY,8938 - 40 SOUTH COTTAGE GROVE AV,CHICAGO,IL,60619,66,COOK,17031,41.73178,-87.605,CHILD DAY CARE CENTERS,POINT (-87.605 41.73178),1079,17,031,440800,17031440800,41.731711569195944,-87.60332792910984,0.0864378378685493,1.325,3.5833333333333335,15.328935020505709,0,3.5833333333333335
64,46142,MONTESSORI PRIVATE ACADEMY INC,8101 SAYER RD,ROCKFORD,IL,61108,16,WINNEBAGO,17201,42.25442,-88.95921,CHILD DAY CARE CENTERS,POINT (-88.95921 42.25442),2511,17,201,000514,17201000514,42.255620810535085,-88.95970700252151,0.08686686298613823,10.78,11.0,124.09795438014397,0,11.0
65,45634,LEAPS OF LEARNING CHILD CARE CENTER INC,9011 S COTTAGE GROVE AVE NUMBER 901,CHICAGO,IL,60619,50,COOK,17031,41.73072,-87.60438,CHILD DAY CARE CENTERS,POINT (-87.60438 41.73072),1079,17,031,440800,17031440800,41.731711569195944,-87.60332792910984,0.08748093493294763,2.327,5.166666666666667,26.60008151243009,0,5.166666666666667
66,44263,BOTTLES2BOOKS QUALITY CHILDCARE ACAD INC,19510 N CREEK DR,LYNWOOD,IL,60411,104,COOK,17031,41.542182,-87.55995,CHILD DAY CARE CENTERS,POINT (-87.55995 41.542182),1481,17,031,828505,17031828505,41.543217349331115,-87.56092873555951,0.08772465948292436,2.865,4.633333333333334,32.659003943556755,0,4.633333333333334
67,46159,DR. EFFIE O ELLIS YMCA DAY CARE CENTER,10 S KEDZIE AVE,CHICAGO,IL,60612,40,COOK,17031,41.880601,-87.706101,CHILD DAY CARE CENTERS,POINT (-87.706101 41.880601),247,17,031,836900,17031836900,41.881883054585515,-87.70613618169075,0.08869488631809083,0.963,2.7333333333333334,10.857446691417426,0,2.7333333333333334
68,46345,BRIGHT HORIZONS CHICAGO EAST LOOP,225 N MICHIGAN AVE,CHICAGO,IL,60601,35,COOK,17031,41.88633,-87.62403,CHILD DAY CARE CENTERS,POINT (-87.62403 41.88633),389,17,031,320102,17031320102,41.885039022703424,-87.62405518541148,0.08930295823842319,0.144,0.21666666666666667,1.612488576420339,0,0.21666666666666667
69,45935,LITTLE MARVELS EARLY CHILDHOOD SCHOOL,3045 N LINCOLN AVE,CHICAGO,IL,60657,64,COOK,17031,41.937151,-87.665122,CHILD DAY CARE CENTERS,POINT (-87.665122 41.937151),1774,17,031,062700,17031062700,41.93608628484741,-87.6661103226328,0.08949455220896986,0.772,3.25,8.626223395111015,0,3.25
70,45201,KANGAROO KORNER LEARNING CENTER,3446 W FULLERTON AVE,CHICAGO,IL,60647,109,COOK,17031,41.92486,-87.71407,CHILD DAY CARE CENTERS,POINT (-87.71407 41.92486),649,17,031,220601,17031220601,41.925825208963694,-87.71288365533428,0.09046704783793622,0.691,2.25,7.63814025674703,0,2.25
71,45407,GUADALUPANO FAMILY CENTER,1814 S PAULINA ST,CHICAGO,IL,60608,197,COOK,17031,41.85723,-87.66885,CHILD DAY CARE CENTERS,POINT (-87.66885 41.85723),1909,17,031,310800,17031310800,41.855933721307615,-87.66857374611118,0.09078270672154565,0.938,4.2,10.332364322173074,0,4.2
72,44566,HAPPI TIME DAY CARE,1010 STRATFORD DRIVE,CHAMPAIGN,IL,61821,90,CHAMPAIGN,17019,40.10452,-88.29147,CHILD DAY CARE CENTERS,POINT (-88.29147 40.10452),2976,17,019,001201,17019001201,40.105693874842935,-88.29067526753781,0.09143392828942051,5.37,7.283333333333333,58.73093391549429,0,7.283333333333333
73,43797,MOMMY AND AIDEN ACADEMY,333 S LAKE ST,AURORA,IL,60506,52,KANE,17089,41.75465,-88.32645,CHILD DAY CARE CENTERS,POINT (-88.32645 41.75465),1841,17,089,854700,17089854700,41.75350202690296,-88.32556576626602,0.09157765287597562,3.986,6.5,43.525902606373556,0,6.5
74,44395,HEARTZ AND MINDZ LEARNING CENTER,10008 W ROOSEVELT RD,WESTCHESTER,IL,60154,63,COOK,17031,41.86352,-87.873361,CHILD DAY CARE CENTERS,POINT (-87.873361 41.86352),1038,17,031,818200,17031818200,41.863515278122875,-87.87514183706104,0.09173416081416348,0.158,0.16666666666666666,1.7223681843024532,0,0.16666666666666666
75,45943,TAYLOR TOTS DAY CARE,1417 W TAYLOR ST FL 1,CHICAGO,IL,60607,97,COOK,17031,41.86933,-87.66231,CHILD DAY CARE CENTERS,POINT (-87.66231 41.86933),1005,17,031,283100,17031283100,41.869274106116784,-87.6640920122828,0.09186719492805004,0.605,1.6666666666666667,6.585593480608972,0,1.6666666666666667
76,43697,"RAINFOREST LEARNING CENTER, INC",1401 S WABASH AVE,CHICAGO,IL,60605,93,COOK,17031,41.863861,-87.625731,CHILD DAY CARE CENTERS,POINT (-87.625731 41.863861),326,17,031,330102,17031330102,41.86357211553256,-87.62398831496843,0.09196496837134212,0.922,2.966666666666667,10.025556647582247,0,2.966666666666667
77,46257,FAMILY RESCUE / RIDGELAND DAYCARE CTR,6824 S. RIDGELAND,CHICAGO,IL,60649,35,COOK,17031,41.77095,-87.58222,CHILD DAY CARE CENTERS,POINT (-87.58222 41.77095),2005,17,031,430200,17031430200,41.76976128060318,-87.58135086622278,0.09365072616134627,1.127,3.0833333333333335,12.034076468967754,0,3.0833333333333335
78,43752,KRIPA MONTESSORI SCHOOL SCHAUMBURG,1021 N SALEM DR,SCHAUMBURG,IL,60194,111,COOK,17031,42.04525,-88.099501,CHILD DAY CARE CENTERS,POINT (-88.099501 42.04525),611,17,031,804715,17031804715,42.0450230929205,-88.09770163420683,0.09374735456014256,2.131,3.783333333333333,22.73130809929021,0,3.783333333333333
79,45711,LOOP LEARNING CENTER INC,"2001 S MICHIGAN AVE, STE 3",CHICAGO,IL,60616,165,COOK,17031,41.85513,-87.6236,CHILD DAY CARE CENTERS,POINT (-87.6236 41.85513),324,17,031,330103,17031330103,41.85647960419486,-87.62341722505033,0.09382231589727137,3.2,9.166666666666666,34.10702421270189,0,9.166666666666666
80,45270,KIMBALL DAY CARE CENTER AND KINDERGARTEN,1636 N KIMBALL AVE NUMBER 38,CHICAGO,IL,60647,126,COOK,17031,41.91122,-87.71169,CHILD DAY CARE CENTERS,POINT (-87.71169 41.91122),1644,17,031,230200,17031230200,41.91186877382346,-87.71008438364542,0.094042340488097,1.16,3.533333333333333,12.334869527697707,0,3.533333333333333
81,45706,KIDWATCH PLUS,3330 N LOCKWOOD AVE,CHICAGO,IL,60641,127,COOK,17031,41.94168,-87.76008,"CHILD DAY CARE, BEFORE OR AFTER SCHOOL, SEPARATE FROM SCHOOLS",POINT (-87.76008 41.94168),858,17,031,151100,17031151100,41.94229034323702,-87.76171751796599,0.09423270684062317,0.719,2.816666666666667,7.630047189624434,0,2.816666666666667
82,44613,LITTLE FARMERS EARLY LEARNING CENTER INC,95 N MAIN ST,FARMINGTON,IL,61531,49,FULTON,17057,40.69952,-90.0056,CHILD DAY CARE CENTERS,POINT (-90.0056 40.69952),791,17,057,952800,17057952800,40.69877394740879,-90.00711988773573,0.09494785773903881,22.065,17.466666666666665,232.39070923163908,0,17.466666666666665
83,45437,PRE SCHOOL IN THE PARK,WASHINGTON PARK PAVILION,SPRINGFIELD,IL,62704,50,SANGAMON,17167,39.77108,-89.64022,CHILD DAY CARE CENTERS,POINT (-89.64022 39.77108),752,17,167,002600,17167002600,39.76994677673321,-89.64126602550095,0.09610517416192299,4.476,8.016666666666667,46.57397522071603,0,8.016666666666667
84,44376,MARY SEARS CHILDRENS ACADEMY,9600 KING ST,FRANKLIN PARK,IL,60131,103,COOK,17031,41.9414877,-87.866796,CHILD DAY CARE CENTERS,POINT (-87.866796 41.9414877),1663,17,031,811500,17031811500,41.94137737369931,-87.86867036181245,0.0967348913238197,3.617,7.016666666666667,37.39085195115489,0,7.016666666666667
85,46325,TLE AT CHICAGO - RACINE LLC,310 S RACINE AVENUE,CHICAGO,IL,60607,132,COOK,17031,41.87769,-87.65732,CHILD DAY CARE CENTERS,POINT (-87.65732 41.87769),2268,17,031,833100,17031833100,41.879077672803604,-87.65704585101493,0.097014551812063,1.512,4.316666666666666,15.585290781212418,0,4.316666666666666
86,46251,ROBIN'S NEST LEARNING CENTER,110 S VIRGINIA AVE,MARION,IL,62959,153,WILLIAMSON,17199,37.7307,-88.92348,CHILD DAY CARE CENTERS,POINT (-88.92348 37.7307),1457,17,199,021100,17199021100,37.73033488441413,-88.92176636958447,0.09708512828679823,19.445,17.233333333333334,200.2881424079465,0,17.233333333333334
87,46103,WEE CARE PRESCHOOL,2816 N PINE GROVE AVE,CHICAGO,IL,60657,90,COOK,17031,41.9335,-87.64175,CHILD DAY CARE CENTERS,POINT (-87.64175 41.9335),2200,17,031,063301,17031063301,41.93454073372269,-87.64302394598124,0.09735851087044559,1.471,5.75,15.109105376082132,0,5.75
88,46008,NEWPORT CHILDRENS ACADEMY,1825 W NEWPORT AVE,CHICAGO,IL,60657,171,COOK,17031,41.94402,-87.6748,CHILD DAY CARE CENTERS,POINT (-87.6748 41.94402),1577,17,031,050700,17031050700,41.94507103847245,-87.67605949619478,0.0973832346625404,0.803,2.816666666666667,8.24577251703145,0,2.816666666666667
89,44631,CHILD DEVELOPMENT AND FAMILY CENTER,169 GABEL HALL,DEKALB,IL,60115,44,DEKALB,17037,41.93317,-88.771,CHILD DAY CARE CENTERS,POINT (-88.771 41.93317),716,17,037,002200,17037002200,41.93423119743873,-88.7697484154462,0.09764723109297604,12.826,12.716666666666667,131.35037068063468,0,12.716666666666667
90,44871,COMMUNITY PRESBYTERIAN CHILDREN'S PRGRM,39 N PROSPECT AVE,CLARENDON HLS,IL,60514,86,DUPAGE,17043,41.79858,-87.9548,CHILD DAY CARE CENTERS,POINT (-87.9548 41.79858),1557,17,043,845100,17043845100,41.799623309067584,-87.9560775870637,0.0977099364053036,3.474,5.583333333333333,35.55421411380056,0,5.583333333333333
91,45406,ERIE NEIGHBORHOOD HOUSE D.C. PROGRAM,1347 WEST ERIE STREET,CHICAGO,IL,60622,99,COOK,17031,41.893438,-87.66135,CHILD DAY CARE CENTERS,POINT (-87.66135 41.893438),852,17,031,243400,17031243400,41.89256606514704,-87.6598540386419,0.09782574303635817,14.477,13.416666666666666,147.98763138062176,0,13.416666666666666
92,45397,FIRST IMPRESSIONS,1145 S COLLEGE ST,SPRINGFIELD,IL,62704,74,SANGAMON,17167,39.78815,-89.65755,CHILD DAY CARE CENTERS,POINT (-89.65755 39.78815),747,17,167,001900,17167001900,39.7895626873147,-89.65771352181447,0.09809765451775468,2.714,5.5,27.666308775086907,0,5.5
93,46140,ROOSEVELT COMMUNITY EDUCATION CENTER INF,978 HASKELL AVENUE,ROCKFORD,IL,61103,27,WINNEBAGO,17201,42.28305,-89.09244,CHILD DAY CARE CENTERS,POINT (-89.09244 42.28305),2096,17,201,003100,17201003100,42.28446347517492,-89.09269463075466,0.09863085755176611,6.83,8.883333333333333,69.24810520293099,0,8.883333333333333
94,45791,FOURTH CHURCH DAY SCHOOL,126 EAST CHESTNUT STREET,CHICAGO,IL,60611,32,COOK,17031,41.89843,-87.62456,CHILD DAY CARE CENTERS,POINT (-87.62456 41.89843),2199,17,031,081201,17031081201,41.89915380623647,-87.62621204438287,0.09869285302850558,0.315,1.9166666666666667,3.191720477561006,0,1.9166666666666667
95,44586,NORTHWESTERN UNIVERSITY SETTLEMENT,1424 N CLEAVER ST,CHICAGO,IL,60642,220,COOK,17031,41.90804,-87.66462,CHILD DAY CARE CENTERS,POINT (-87.66462 41.90804),862,17,031,241600,17031241600,41.906709711791784,-87.66532774045673,0.09896255033786057,0.977,4.483333333333333,9.872421402485061,0,4.483333333333333
96,45548,LAWNDALE COMM. DAY CARE,1800 S LAWNDALE AVE,CHICAGO,IL,60623,32,COOK,17031,41.857,-87.7176,CHILD DAY CARE CENTERS,POINT (-87.7176 41.857),1263,17,031,292200,17031292200,41.85666651045234,-87.71573052464402,0.09903330353986617,2.183,6.25,22.043089768496174,0,6.25
97,44802,ST MARKS PRESCHOOL,393 N MAIN ST,GLEN ELLYN,IL,60137,45,DUPAGE,17043,41.87357,-88.06667,CHILD DAY CARE CENTERS,POINT (-88.06667 41.87357),3190,17,043,842200,17043842200,41.87499880519833,-88.06650755999382,0.09918022039322916,1.904,4.416666666666667,19.197376174917054,0,4.416666666666667
98,45809,MARY MEYER SCHOOL,2817 NORTH PINE GROVE,CHICAGO,IL,60657,20,COOK,17031,41.93366,-87.64111,CHILD DAY CARE CENTERS,POINT (-87.64111 41.93366),597,17,031,063302,17031063302,41.93476467345397,-87.63985399663768,0.10007368134781658,1.412,5.45,14.109603853709006,0,5.45
99,43548,PRESENCE BEHAVIORAL HEALTH,330 EASTERN AVE,BELLWOOD,IL,60104,48,COOK,17031,41.88613,-87.87354,"HEAD START PROGRAMS, SEPARATE FROM SCHOOLS",POINT (-87.87354 41.88613),970,17,031,817000,17031817000,41.887359806960106,-87.8725068049085,0.10032995040138723,1.627,3.8,16.216493614228916,0,3.8
100,45553,"FAIRYLAND NURSERY SCHOOL, INC.",4350 N. MILWAUKEE,CHICAGO,IL,60641,86,COOK,17031,41.96006,-87.75419,CHILD DAY CARE CENTERS,POINT (-87.75419 41.96006),1815,17,031,150200,17031150200,41.96067493111605,-87.7524131309287,0.1008031695053496,3.046,7.633333333333334,30.217303830296224,0,7.633333333333334
101,45642,"A CHILDS PLACE ACADEMY 2, LLC",6113 S PRAIRIE AVE NUMBER 6115,CHICAGO,IL,60637,24,COOK,17031,41.7833,-87.61869,CHILD DAY CARE CENTERS,POINT (-87.61869 41.7833),1116,17,031,400800,17031400800,41.782863300673334,-87.62055800627418,0.1009686817965097,1.41,3.8666666666666667,13.964726238990485,0,3.8666666666666667
102,46283,JENKINS INSTITUTE OF LOVE,8907 S COTTAGE GROVE AVE,CHICAGO,IL,60619,42,COOK,17031,41.73273,-87.60474,CHILD DAY CARE CENTERS,POINT (-87.60474 41.73273),1079,17,031,440800,17031440800,41.731711569195944,-87.60332792910984,0.10136383881445804,2.231,6.233333333333333,22.009821511236815,0,6.233333333333333
103,45474,STEPPING STONES NURSERY SCHOOL,3416 W FULLERTON AVE,CHICAGO,IL,60647,15,COOK,17031,41.92436,-87.71279,CHILD DAY CARE CENTERS,POINT (-87.71279 41.92436),649,17,031,220601,17031220601,41.925825208963694,-87.71288365533428,0.10145923256266977,0.595,2.3333333333333335,5.86442440940481,0,2.3333333333333335
104,45865,KALINA PRESCHOOL AND KINDERGARTEN,4100 N CALIFORNIA AVE,CHICAGO,IL,60618,36,COOK,17031,41.95586,-87.69843,CHILD DAY CARE CENTERS,POINT (-87.69843 41.95586),2301,17,031,160602,17031160602,41.95657185293686,-87.70017370851393,0.10231668556958304,0.919,3.933333333333333,8.981917219894804,0,3.933333333333333
105,46177,DALIA'S BUSY BEE ACADEMY INC,10658 S GREEN BAY AVE,CHICAGO,IL,60617,64,COOK,17031,41.70169,-87.54139,CHILD DAY CARE CENTERS,POINT (-87.54139 41.70169),1305,17,031,520300,17031520300,41.701114059757145,-87.53956285974738,0.10242153258821192,1.456,2.816666666666667,14.215760721467436,0,2.816666666666667
106,45878,THE WHITE STEEPLE PRESCHOOL,5849 N NINA AVE,CHICAGO,IL,60631,32,COOK,17031,41.98725,-87.80414,CHILD DAY CARE CENTERS,POINT (-87.80414 41.98725),1787,17,031,100300,17031100300,41.98873303850588,-87.80426022102034,0.1027639509646595,2.317,6.066666666666666,22.546817033113257,0,6.066666666666666
107,46332,RAVENSWOOD MONTESSORI SCHOOL,"1945 W WILSON, STE 200",CHICAGO,IL,60640,99,COOK,17031,41.96482,-87.67853,"CHILD DAY CARE, BEFORE OR AFTER SCHOOL, SEPARATE FROM SCHOOLS",POINT (-87.67853 41.96482),2022,17,031,830800,17031830800,41.96514132497205,-87.67657749631556,0.10284677209649414,0.631,2.566666666666667,6.135340829248152,0,2.566666666666667
108,45800,SAINT CHRYSOSTOM'S DAY SCHOOL,1424 NORTH DEARBORN,CHICAGO,IL,60610,101,COOK,17031,41.9081,-87.63031,CHILD DAY CARE CENTERS,POINT (-87.63031 41.9081),2552,17,031,080201,17031080201,41.909497569694565,-87.63100510505922,0.10307575969642618,1.87,4.25,18.14199580490539,0,4.25
109,43758,GRANDMA JONES DAY CARE CENTER,777 SIBLEY BLVD,CALUMET CITY,IL,60409,94,COOK,17031,41.62239,-87.54414,CHILD DAY CARE CENTERS,POINT (-87.54414 41.62239),976,17,031,825900,17031825900,41.621696178108635,-87.54236522272892,0.10355676463878417,0.187,0.7666666666666667,1.805772907760046,0,0.7666666666666667
110,45346,UIC CHILDREN'S CENTER - II,1919 WEST TAYLOR STREET,CHICAGO,IL,60612,52,COOK,17031,41.86911,-87.67413,CHILD DAY CARE CENTERS,POINT (-87.67413 41.86911),2271,17,031,838200,17031838200,41.87041483114621,-87.67512594532063,0.10381150689003801,1.032,3.7333333333333334,9.941094498253864,0,3.7333333333333334
111,44370,CHILDREN'S HOME CENTER TOO INC,3236 UNION AVE,STEGER,IL,60475,162,COOK,17031,41.47194,-87.63337,CHILD DAY CARE CENTERS,POINT (-87.63337 41.47194),1221,17,031,829600,17031829600,41.47342890687851,-87.63304295003466,0.10436929107373832,10.549,14.8,101.07379183544504,0,14.8
112,44294,BOBBIE NOONAN'S CHILD CARE LLC,13230 W CEDAR CREEK CT,HOMER GLEN,IL,60491,124,WILL,17197,41.62795,-87.94233,CHILD DAY CARE CENTERS,POINT (-87.94233 41.62795),2534,17,197,881005,17197881005,41.62886133851371,-87.94071637426671,0.1045617865728501,3.501,4.9,33.48259545623572,0,4.9
113,45272,ONWARD NEIGHBORHOOD HOUSE,5423 W DIVERSEY AVE,CHICAGO,IL,60639,134,COOK,17031,41.93113,-87.76238,CHILD DAY CARE CENTERS,POINT (-87.76238 41.93113),1920,17,031,190701,17031190701,41.929795910307014,-87.76142166252468,0.10462604339085495,0.489,1.7666666666666666,4.673788515286071,0,1.7666666666666666
114,46164,"JONES ACADEMY, INC",4344 S WENTWORTH AVE,CHICAGO,IL,60609,117,COOK,17031,41.81506,-87.63148,CHILD DAY CARE CENTERS,POINT (-87.63148 41.81506),2370,17,031,835500,17031835500,41.81635429969574,-87.63253951148765,0.10486912899164187,2.2,4.583333333333333,20.978528392043206,0,4.583333333333333
115,44073,"POKO LOKO CHILD CARE CENTER, INC.",404 S ELMHURST RD,WHEELING,IL,60090,96,COOK,17031,42.13127,-87.93673,CHILD DAY CARE CENTERS,POINT (-87.93673 42.13127),1320,17,031,802504,17031802504,42.13279040285631,-87.93675531772786,0.10517032824455914,3.148,4.833333333333333,29.93239683230577,0,4.833333333333333
116,44258,ALPHABET LEARNING CENTER INC,9220 BROADWAY AVE NUMBER 22,BROOKFIELD,IL,60513,65,COOK,17031,41.82684,-87.85241,CHILD DAY CARE CENTERS,POINT (-87.85241 41.82684),1040,17,031,818800,17031818800,41.82712235714835,-87.8544214122855,0.10549357475417749,1.488,2.8333333333333335,14.105124444473107,0,2.8333333333333335
117,45429,TIPPY TOT DAYCARE CENTER,9135 S ASHLAND AVE,CHICAGO,IL,60620,17,COOK,17031,41.72743,-87.66252,CHILD DAY CARE CENTERS,POINT (-87.66252 41.72743),1011,17,031,730300,17031730300,41.72746940402383,-87.66456671690257,0.10568866098785823,2.413,6.016666666666667,22.83120987101172,0,6.016666666666667
118,45409,"WEST TOWN DAYCARE, LLC",2751 W CORTEZ ST,CHICAGO,IL,60622,74,COOK,17031,41.90001,-87.69612,CHILD DAY CARE CENTERS,POINT (-87.69612 41.90001),1900,17,031,242600,17031242600,41.90056013235445,-87.69419701935908,0.10605952892169478,1.371,4.416666666666667,12.926702710627994,0,4.416666666666667
119,45942,SOUTH - EAST ASIA CENTER INFANT - TODDLER CT,4915 N BROADWAY ST,CHICAGO,IL,60640,17,COOK,17031,41.97171,-87.65891,CHILD DAY CARE CENTERS,POINT (-87.65891 41.97171),1770,17,031,031200,17031031200,41.972709243107715,-87.65734101661397,0.10623869097497508,1.872,5.8,17.62069903930722,0,5.8
120,45575,THE SALVATION ARMY CHILD CARE CENTER,210 SPALDING AVEUNE,PEORIA,IL,61603,87,PEORIA,17143,40.69424,-89.58604,CHILD DAY CARE CENTERS,POINT (-89.58604 40.69424),489,17,143,001200,17143001200,40.693183095682365,-89.58751062699456,0.1062650015269714,4.574,5.866666666666666,43.0433344400702,0,5.866666666666666
121,45654,LIL SCHOLARS LEARNING CENTER LLC,1000 S WESTERN AVE,CHICAGO,IL,60612,41,COOK,17031,41.86913,-87.68631,CHILD DAY CARE CENTERS,POINT (-87.68631 41.86913),1113,17,031,282800,17031282800,41.870268395305516,-87.68491363569868,0.1066429385492465,1.775,4.116666666666666,16.64432754898558,0,4.116666666666666
122,44718,KNOX COUNTY HEAD START I,277 E TOMPKINS ST,GALESBURG,IL,61401,66,KNOX,17095,40.94512,-90.36706,"HEAD START PROGRAMS, SEPARATE FROM SCHOOLS",POINT (-90.36706 40.94512),756,17,095,000800,17095000800,40.94586560090608,-90.36885401078749,0.10697833835175503,11.737,12.616666666666667,109.71379982934133,0,12.616666666666667
123,43976,DIST NUMBER 65 SACC - DAWES SCHOOL,440 DODGE AVE,EVANSTON,IL,60202,50,COOK,17031,42.02507,-87.69953,CHILD DAY CARE CENTERS,POINT (-87.69953 42.02507),987,17,031,810301,17031810301,42.02531002035297,-87.701608329858,0.10806952870392539,0.859,2.066666666666667,7.948586528524379,0,2.066666666666667
124,45190,LIGHT OF CHRIST PRESCHOOL,1700 LONGMEADOW PKWY,ALGONQUIN,IL,60102,75,KANE,17089,42.139817,-88.335575,CHILD DAY CARE CENTERS,POINT (-88.335575 42.139817),630,17,089,850105,17089850105,42.13895602431694,-88.33380689324369,0.10848929848889205,4.813,5.683333333333334,44.36382267226837,0,5.683333333333334
125,46240,KIDS IN HARMONY DAY SCHOOL,4328 N MILWAUKEE AVE,CHICAGO,IL,60641,59,COOK,17031,41.95953,-87.75386,CHILD DAY CARE CENTERS,POINT (-87.75386 41.95953),1815,17,031,150200,17031150200,41.96067493111605,-87.7524131309287,0.10867084253102618,1.489,5.166666666666667,13.701927447326835,0,5.166666666666667
126,45751,LITTLE EINSTEINS ACADEMY LLC,2896 S ARCHER AVE,CHICAGO,IL,60608,66,COOK,17031,41.84203,-87.65765,CHILD DAY CARE CENTERS,POINT (-87.65765 41.84203),1443,17,031,600600,17031600600,41.84238527193596,-87.6555817583142,0.10937002355367975,1.986,5.133333333333334,18.158540480017855,0,5.133333333333334
127,45399,CENTRO INFANTIL CONSULO LEE CORRETJE,1345 N ROCKWELL ST,CHICAGO,IL,60622,86,COOK,17031,41.90622,-87.69163,CHILD DAY CARE CENTERS,POINT (-87.69163 41.90622),861,17,031,241100,17031241100,41.90664031263667,-87.689580099312,0.1094540356329733,1.122,4.166666666666667,10.250878311717496,0,4.166666666666667
128,46072,FOR YOUR CHILD PRESCHOOL II,2601 W ARMITAGE AVE,CHICAGO,IL,60647,69,COOK,17031,41.91732,-87.6925,CHILD DAY CARE CENTERS,POINT (-87.6925 41.91732),2125,17,031,832400,17031832400,41.9157411008667,-87.69225648429946,0.10992520218008557,1.045,3.566666666666667,9.5064642072527,0,3.566666666666667
129,46350,FIRST START CHILDCARE ACADEMY SOUTH,5700 SOUTH ASHLAND AVENUE,CHICAGO,IL,60636,50,COOK,17031,41.79023,-87.66479,CHILD DAY CARE CENTERS,POINT (-87.66479 41.79023),1334,17,031,670300,17031670300,41.7903576372371,-87.66691669890156,0.11002955503862184,1.801,5.133333333333334,16.368329394477918,0,5.133333333333334
130,45629,DREAMERS ACADEMY,"1824 W GRAND AVE, STE 100",CHICAGO,IL,60622,55,COOK,17031,41.89112,-87.67314,CHILD DAY CARE CENTERS,POINT (-87.67314 41.89112),849,17,031,243100,17031243100,41.892354662136384,-87.6745067534742,0.1106578537417196,1.81,4.466666666666667,16.356724252257965,0,4.466666666666667
131,45475,MONTESSORI GIFTED PREP,4754 N LEAVITT ST,CHICAGO,IL,60625,92,COOK,17031,41.96843,-87.68425,CHILD DAY CARE CENTERS,POINT (-87.68425 41.96843),965,17,031,040600,17031040600,41.966833765014,-87.68401804407817,0.11104997863863238,0.181,0.8333333333333334,1.6298967565675264,0,0.8333333333333334
132,45743,COMMUNITY ACTION HEAD START LOGAN 1 AND 3,2018 N KICKAPOO ST,LINCOLN,IL,62656,37,LOGAN,17107,40.16269,-89.3439,"HEAD START PROGRAMS, SEPARATE FROM SCHOOLS",POINT (-89.3439 40.16269),767,17,107,953200,17107953200,40.16131321789681,-89.34499507161891,0.11144104260467215,27.683,20.683333333333334,248.40937730817132,0,20.683333333333334
133,44439,LITTLE UNIVERSITY INC,2501 N CHESTNUT AVE,ARLINGTON HTS,IL,60004,20,COOK,17031,42.12149,-87.98454,CHILD DAY CARE CENTERS,POINT (-87.98454 42.12149),608,17,031,803016,17031803016,42.12081727778954,-87.98652322305676,0.11188098209400237,2.577,4.65,23.033405246968652,0,4.65
134,44480,THE GODDARD SCHOOL OF SOUTH LOOP CHICAGO,209 E CULLERTON ST,CHICAGO,IL,60616,159,COOK,17031,41.85532,-87.62189,CHILD DAY CARE CENTERS,POINT (-87.62189 41.85532),324,17,031,330103,17031330103,41.85647960419486,-87.62341722505033,0.11235443663168225,3.079,9.566666666666666,27.404347280860012,0,9.566666666666666
135,46154,"TEDDY BEAR NURSERY SCHOOLS, INC. I",2649 WEST 51ST STREET,CHICAGO,IL,60632,178,COOK,17031,41.80104,-87.69102,CHILD DAY CARE CENTERS,POINT (-87.69102 41.80104),373,17,031,630600,17031630600,41.80120937995317,-87.68885274167363,0.11236003895323117,1.967,5.766666666666667,17.506223905980896,0,5.766666666666667
136,46174,ALL DAY MONTESSORI,1819 W 99TH ST,CHICAGO,IL,60643,47,COOK,17031,41.71362,-87.66809,CHILD DAY CARE CENTERS,POINT (-87.66809 41.71362),959,17,031,720200,17031720200,41.71304185170682,-87.66605461067459,0.11244296406006504,0.775,1.4333333333333333,6.8923832316089495,0,1.4333333333333333
137,46134,S7HD / HEAD START JONESBORO,309 COOK AVE,JONESBORO,IL,62952,31,UNION,17181,37.4496,-89.27548,"HEAD START PROGRAMS, SEPARATE FROM SCHOOLS",POINT (-89.27548 37.4496),281,17,181,950300,17181950300,37.4500264649413,-89.2774581743191,0.11255750721549117,28.926,24.45,256.98863377119056,0,24.45
138,44414,GUIDEPOST MONTESSORI AT EVANSTON,1012 DAVIS ST,EVANSTON,IL,60201,53,COOK,17031,42.04708,-87.685702,CHILD DAY CARE CENTERS,POINT (-87.685702 42.04708),950,17,031,809500,17031809500,42.04645553618981,-87.68772809114459,0.1126747760722898,0.517,2.4,4.588427135353733,0,2.4
139,45540,BUCKTOWN ACADEMY,1903 N MILWAUKEE AVE,CHICAGO,IL,60647,20,COOK,17031,41.91616,-87.686,CHILD DAY CARE CENTERS,POINT (-87.686 41.91616),1594,17,031,222200,17031222200,41.91590952789829,-87.68382618099291,0.113217986890295,0.949,3.85,8.382060360422711,0,3.85
140,45908,MARSHALL YMCA,3250 W ADAMS ST,CHICAGO,IL,60624,36,COOK,17031,41.87844,-87.70686,CHILD DAY CARE CENTERS,POINT (-87.70686 41.87844),923,17,031,271300,17031271300,41.8773040307164,-87.70845279249038,0.11358817325962181,1.445,4.45,12.721394829523744,0,4.45
141,43684,THORNTON TWSP H.S.DIST 205 INFANT CARE,15001 BROADWAY AVE,HARVEY,IL,60426,45,COOK,17031,41.61715,-87.64453,CHILD DAY CARE CENTERS,POINT (-87.64453 41.61715),1091,17,031,827100,17031827100,41.61806227774622,-87.64636022291215,0.11374612509418595,1.706,4.483333333333333,14.99831311692921,0,4.483333333333333
142,44620,EARLY BEGINNINGS INC,102 S JACKSONVILLE ST,WHITE HALL,IL,62092,49,GREENE,17061,39.43664,-90.40193,CHILD DAY CARE CENTERS,POINT (-90.40193 39.43664),585,17,061,973900,17061973900,39.437686364296965,-90.40357952661205,0.11402902991846285,44.673,58.36666666666667,391.7686577877905,0,58.36666666666667
143,45377,SOUTH EAST ASIA CENTER PRE SCHOOL,1124 W AINSLIE,CHICAGO,IL,60640,65,COOK,17031,41.971545,-87.658917,CHILD DAY CARE CENTERS,POINT (-87.658917 41.971545),1770,17,031,031200,17031031200,41.972709243107715,-87.65734101661397,0.11424844895255287,0.534,2.1166666666666667,4.674024066810474,0,2.1166666666666667
144,45411,CHILDREN'S WORLD,3356 S ASHLAND AVE,CHICAGO,IL,60608,87,COOK,17031,41.83289,-87.66569,CHILD DAY CARE CENTERS,POINT (-87.66569 41.83289),2367,17,031,840400,17031840400,41.83382653486198,-87.66752597645377,0.11466824381102106,0.901,2.933333333333333,7.85745006686326,0,2.933333333333333
145,45633,TLE AT CHICAGO - WESTERN AVE LLC,2642 N JONES ST,CHICAGO,IL,60647,65,COOK,17031,41.92911,-87.68751,CHILD DAY CARE CENTERS,POINT (-87.68751 41.92911),2024,17,031,830900,17031830900,41.928629713221554,-87.68537284793268,0.11488319558307376,0.672,1.95,5.849419461126208,0,1.95
146,44734,KINDERCARE LEARNING CENTER NUMBER 300989,2 S 726 ROUTE 53,GLEN ELLYN,IL,60137,116,DUPAGE,17043,41.831931,-88.054272,CHILD DAY CARE CENTERS,POINT (-88.054272 41.831931),1208,17,043,842706,17043842706,41.83028110322924,-88.05398768239287,0.11505595698262183,3.77,5.85,32.76666501126425,0,5.85
147,45728,HIGH MOUNTAIN HEAD START,919 NORTH LAVERGNE,CHICAGO,IL,60651,34,COOK,17031,41.89735,-87.75056,"HEAD START PROGRAMS, SEPARATE FROM SCHOOLS",POINT (-87.75056 41.89735),888,17,031,251100,17031251100,41.8986248201227,-87.75201116981333,0.11557175557963281,1.329,5.15,11.499349415733972,0,5.15
148,45809,MARY MEYER SCHOOL,2817 NORTH PINE GROVE,CHICAGO,IL,60657,20,COOK,17031,41.93366,-87.64111,CHILD DAY CARE CENTERS,POINT (-87.64111 41.93366),2200,17,031,063301,17031063301,41.93454073372269,-87.64302394598124,0.11579973410927998,1.412,5.45,12.193464957937627,0,5.45
149,45224,NOAH'S ARK NURSERY SCHOOL,1617 E EMERSON ST,BLOOMINGTON,IL,61701,53,MCLEAN,17113,40.49337,-88.9666,CHILD DAY CARE CENTERS,POINT (-88.9666 40.49337),638,17,113,001200,17113001200,40.493491032022455,-88.9644007893783,0.11598199069937451,2.692,4.35,23.210500042007972,0,4.35
150,45911,SONNETS ACADEMY RIVER NORTH LLC,"430 W ERIE ST, STE 100",CHICAGO,IL,60654,124,COOK,17031,41.89409,-87.63978,CHILD DAY CARE CENTERS,POINT (-87.63978 41.89409),1667,17,031,081800,17031081800,41.89326840361561,-87.63780051223728,0.11669069123251134,0.632,3.15,5.416027562478932,0,3.15
151,46269,PEACHTREE NURSERY AND LEARNING CENTER,3811 W. FULLERTON,CHICAGO,IL,60647,15,COOK,17031,41.92435,-87.72242,CHILD DAY CARE CENTERS,POINT (-87.72242 41.92435),2351,17,031,220902,17031220902,41.922711188935565,-87.72183572975253,0.11727254652167578,1.535,5.266666666666667,13.089167460998913,0,5.266666666666667
152,43874,EYES ON THE FUTURE CHILD CARE CENTER,7015 N RAVENSWOOD AVE,CHICAGO,IL,60626,60,COOK,17031,42.0087,-87.67497,CHILD DAY CARE CENTERS,POINT (-87.67497 42.0087),2157,17,031,010702,17031010702,42.00902000083218,-87.67272571906948,0.11744755964554793,0.346,1.2,2.945995651541967,0,1.2
153,44470,TIA CORAZONCITO LEARNING AND DAYCARE CTR NUMBER 2,5600 W 26TH ST,CICERO,IL,60804,30,COOK,17031,41.84386,-87.76391,CHILD DAY CARE CENTERS,POINT (-87.76391 41.84386),2717,17,031,814100,17031814100,41.84228041373613,-87.76304269210196,0.11804277323843082,0.719,1.7833333333333334,6.0910124379043085,0,1.7833333333333334
154,46429,PEACHTREE LEARNING CENTER,3817 W FULLERTON AVE,CHICAGO,IL,60647,16,COOK,17031,41.92434,-87.72253,CHILD DAY CARE CENTERS,POINT (-87.72253 41.92434),2351,17,031,220902,17031220902,41.922711188935565,-87.72183572975253,0.11819052428679801,1.234,4.016666666666667,10.440769320944954,0,4.016666666666667
155,45321,WESTMINSTER INFANT CARE CENTER,1420 W MOSS AVE,PEORIA,IL,61606,11,PEORIA,17143,40.69308,-89.61534,CHILD DAY CARE CENTERS,POINT (-89.61534 40.69308),1384,17,143,001900,17143001900,40.69325761083483,-89.61758269077936,0.11825452002519256,1.937,3.0166666666666666,16.379923571524774,0,3.0166666666666666
156,43540,BUILDING BLOCKS PRE - SCHOOL,60 AKENSIDE ROAD,RIVERSIDE,IL,60546,30,COOK,17031,41.82957,-87.81963,CHILD DAY CARE CENTERS,POINT (-87.81963 41.82957),1442,17,031,815702,17031815702,41.82788127136267,-87.81922306103013,0.11867301798833269,0.211,0.5166666666666667,1.7779947251425292,0,0.5166666666666667
157,45810,MERRY - GO - ROUND PRE - SCHOOL,2909 WEST 63RD STREET,CHICAGO,IL,60629,38,COOK,17031,41.77908,-87.696302,CHILD DAY CARE CENTERS,POINT (-87.696302 41.77908),600,17,031,660301,17031660301,41.77995404928449,-87.69828723443067,0.11891157929725517,0.851,2.066666666666667,7.156578064384043,0,2.066666666666667
158,44455,EXTREME DAY CARE 123 LOFT,1444 S CICERO AVE,CICERO,IL,60804,86,COOK,17031,41.86056,-87.74484,CHILD DAY CARE CENTERS,POINT (-87.74484 41.86056),604,17,031,813302,17031813302,41.86227440393512,-87.74466719870476,0.11891449790281207,1.877,6.0,15.784450450558671,0,6.0
159,45863,LAKESHORE LEARNING ACADEMY INC,1933 E 87TH ST,CHICAGO,IL,60617,43,COOK,17031,41.73682,-87.57665,CHILD DAY CARE CENTERS,POINT (-87.57665 41.73682),1224,17,031,480100,17031480100,41.73524087363289,-87.57572915860474,0.11911692759918426,0.247,0.7,2.0735927712233195,0,0.7
160,46378,FAMILY MATTERS / FAMILY CONNECTIONS,7731 N MARSHFIELD AVE,CHICAGO,IL,60626,49,COOK,17031,42.02206,-87.67188,CHILD DAY CARE CENTERS,POINT (-87.67188 42.02206),1492,17,031,010100,17031010100,42.02125523197245,-87.66983016903473,0.11913227814772605,1.203,3.283333333333333,10.098018930757453,0,3.283333333333333
161,44388,EVERBROOK ACADEMY,538 W DIVERSEY PKWY,CHICAGO,IL,60614,134,COOK,17031,41.93282,-87.643142,CHILD DAY CARE CENTERS,POINT (-87.643142 41.93282),2200,17,031,063301,17031063301,41.93454073372269,-87.64302394598124,0.11917358770405803,0.966,4.883333333333334,8.105822931158649,0,4.883333333333334
162,46386,LEARNING TREE PRESCHOOL AND CCC,1314 10TH ST,SILVIS,IL,61282,107,ROCK ISLAND,17161,41.49565,-90.41602,CHILD DAY CARE CENTERS,POINT (-90.41602 41.49565),2570,17,161,020301,17161020301,41.495662449172805,-90.41371466335777,0.1194352025194504,4.805,5.766666666666667,40.23101982196154,0,5.766666666666667
163,43887,CENTRAL CHRISTIAN PRE - SCHOOL,650 W WILLIAM ST,DECATUR,IL,62522,-999,MACON,17115,39.84351,-88.96415,CHILD DAY CARE CENTERS,POINT (-88.96415 39.84351),141,17,115,000502,17115000502,39.84200142048484,-88.96525080331176,0.11960521732559776,4.49,6.133333333333334,37.540168400656015,0,6.133333333333334
164,45426,NORTHWESTERN UNIVERSITY SETTLEMENT ASSN.,1400 W AUGUSTA BLVD,CHICAGO,IL,60622,96,COOK,17031,41.899816,-87.662632,CHILD DAY CARE CENTERS,POINT (-87.662632 41.899816),903,17,031,242000,17031242000,41.89973715025454,-87.66495365214334,0.11964829352181545,1.745,5.75,14.584411934649403,0,5.75
165,46068,"WHIZ KIDZ LEARNING CENTER, INC",2816 W MARQUETTE RD,CHICAGO,IL,60629,47,COOK,17031,41.77199,-87.69398,CHILD DAY CARE CENTERS,POINT (-87.69398 41.77199),1314,17,031,660800,17031660800,41.77364113466514,-87.69326554348065,0.12000413950111076,0.67,1.4833333333333334,5.5831407381892735,0,1.4833333333333334
166,45509,"TEENY TINY UNIVERSITY, INCORPORATED",6111 S COTTAGE GROVE AVE,CHICAGO,IL,60637,105,COOK,17031,41.78379,-87.60574,CHILD DAY CARE CENTERS,POINT (-87.60574 41.78379),1217,17,031,420400,17031420400,41.78316989788863,-87.60355836148196,0.12041752922119912,1.141,3.2333333333333334,9.475364653131669,0,3.2333333333333334
167,45626,MARY CRANE MORSE SITE,1545 W MORSE AVE,CHICAGO,IL,60626,68,COOK,17031,42.0078,-87.66882,CHILD DAY CARE CENTERS,POINT (-87.66882 42.0078),1398,17,031,010600,17031010600,42.006277592259714,-87.66768304345423,0.12042802625701714,0.539,2.55,4.475702348967074,0,2.55
168,44157,THE GODDARD SCHOOL,1032 104TH ST,NAPERVILLE,IL,60564,160,WILL,17197,41.69378,-88.16798,CHILD DAY CARE CENTERS,POINT (-88.16798 41.69378),2099,17,197,880316,17197880316,41.69548672463886,-88.16751682487707,0.12044908825047572,4.668,7.066666666666666,38.7549633442872,0,7.066666666666666
169,46146,EYES ON THE FUTURE CHILD CARE,6969 N RAVENSWOOD AVE,CHICAGO,IL,60626,213,COOK,17031,42.00863,-87.67501,CHILD DAY CARE CENTERS,POINT (-87.67501 42.00863),2157,17,031,010702,17031010702,42.00902000083218,-87.67272571906948,0.12045820875237291,0.504,1.7833333333333334,4.184023697679895,0,1.7833333333333334
170,46000,BUBBLES ACADEMY,2184 N ELSTON AVE,CHICAGO,IL,60614,64,COOK,17031,41.92089,-87.6721,CHILD DAY CARE CENTERS,POINT (-87.6721 41.92089),2039,17,031,832300,17031832300,41.91921032827447,-87.6714480809993,0.12092625891360251,0.972,4.033333333333333,8.037956426771288,0,4.033333333333333
171,46145,IRVING PARK EARLY LEARNING CENTER INC.,3021 W MONTROSE AVE NUMBER 23,CHICAGO,IL,60618,63,COOK,17031,41.96097,-87.70433,CHILD DAY CARE CENTERS,POINT (-87.70433 41.96097),2353,17,031,160601,17031160601,41.959397988057965,-87.70329357642916,0.12109612787557889,0.519,1.9333333333333333,4.285851324108814,0,1.9333333333333333
172,46319,CREME DE LA CREME,2230 N DOMINICK STREET,CHICAGO,IL,60614,256,COOK,17031,41.92183,-87.66647,CHILD DAY CARE CENTERS,POINT (-87.66647 41.92183),2038,17,031,832500,17031832500,41.92188393498575,-87.66411619048394,0.12119498404158856,0.268,1.4833333333333334,2.2113126390448197,0,1.4833333333333334
173,46160,TWINKLING STARS PRESCHOOL LLC,2044B W BELMONT AVE,CHICAGO,IL,60618,48,COOK,17031,41.93971,-87.68003,CHILD DAY CARE CENTERS,POINT (-87.68003 41.93971),1580,17,031,051100,17031051100,41.941365177959845,-87.68082663927251,0.1216000387798929,0.669,2.533333333333333,5.501642982293375,0,2.533333333333333
174,45661,THE CHALKBOARD INC,450 W MENOMONEE ST,CHICAGO,IL,60614,20,COOK,17031,41.91441,-87.63992,CHILD DAY CARE CENTERS,POINT (-87.63992 41.91441),1473,17,031,071700,17031071700,41.9128666422033,-87.64107172085302,0.1221054047996478,1.909,6.583333333333333,15.634033588704064,0,6.583333333333333
175,44759,INDIAN BOUNDARY YMCA - SCHOOL'S OUT,711 59TH STREET,DOWNERS GROVE,IL,60516,20,DUPAGE,17043,41.78036,-88.00176,CHILD DAY CARE CENTERS,POINT (-88.00176 41.78036),1901,17,043,845601,17043845601,41.77945342045436,-87.99972807368091,0.12213089960809559,2.374,4.1,19.438160265894222,0,4.1
176,46360,GIFTED CHILDREN ACADEMY,1522 W HOWARD ST NUMBER 24,CHICAGO,IL,60626,48,COOK,17031,42.01954,-87.66926,CHILD DAY CARE CENTERS,POINT (-87.66926 42.01954),1492,17,031,010100,17031010100,42.02125523197245,-87.66983016903473,0.12220222782272262,1.075,2.3833333333333333,8.796893634046429,0,2.3833333333333333
177,45731,IVY GARDEN LEARNING CENTER LLC HALSTED,2929 S HALSTED ST,CHICAGO,IL,60608,195,COOK,17031,41.84081,-87.64597,CHILD DAY CARE CENTERS,POINT (-87.64597 41.84081),2016,17,031,600400,17031600400,41.84171835840582,-87.64393217402709,0.12236884533436504,0.76,2.2333333333333334,6.210731154023303,0,2.2333333333333334
178,45776,"BRITE NEW MIND DAYCARE CENTER NUMBER 2, INC",118 E 51ST ST,CHICAGO,IL,60615,-999,COOK,17031,41.80209,-87.62157,CHILD DAY CARE CENTERS,POINT (-87.62157 41.80209),1061,17,031,381800,17031381800,41.803848123278534,-87.62119775847623,0.12311009948573558,2.049,6.433333333333334,16.64363856872207,0,6.433333333333334
179,44304,WICKER PARK KID'Z LEARNING CENTER,1064 N MILWAUKEE AVE APT 2W,CHICAGO,IL,60642,33,COOK,17031,41.90107,-87.66335,CHILD DAY CARE CENTERS,POINT (-87.66335 41.90107),903,17,031,242000,17031242000,41.89973715025454,-87.66495365214334,0.12375343674806391,1.824,7.966666666666667,14.738984612712471,0,7.966666666666667
180,45447,I HAVE A DREAM LEARNING DAY CARE CENTER,6117 S ASHLAND AVE NUMBER 21,CHICAGO,IL,60636,74,COOK,17031,41.78278,-87.66423,CHILD DAY CARE CENTERS,POINT (-87.66423 41.78278),1340,17,031,670800,17031670800,41.783144230813825,-87.6618790128929,0.1238447970495542,1.979,4.983333333333333,15.97967817096216,0,4.983333333333333
181,45944,PEACE INFANTS AND TODDLER CENTER,6242 N CLARK ST,CHICAGO,IL,60660,22,COOK,17031,41.99537,-87.67052,CHILD DAY CARE CENTERS,POINT (-87.67052 41.99537),1418,17,031,030300,17031030300,41.994387546773,-87.6725347948691,0.12387407368408623,1.126,3.816666666666667,9.089876246999166,0,3.816666666666667
182,45347,RAUNER YMCA,2700 S WESTERN AVE,CHICAGO,IL,60608,137,COOK,17031,41.843761,-87.685391,CHILD DAY CARE CENTERS,POINT (-87.685391 41.843761),2326,17,031,841300,17031841300,41.84407722376567,-87.68301754320247,0.12423826625140343,1.929,5.783333333333333,15.526617186499973,0,5.783333333333333
183,45659,DETOUR 2 DISCOVERY,2001 S WABASH AVE,CHICAGO,IL,60616,152,COOK,17031,41.85532,-87.62526,CHILD DAY CARE CENTERS,POINT (-87.62526 41.85532),324,17,031,330103,17031330103,41.85647960419486,-87.62341722505033,0.12428138239775445,0.607,2.9166666666666665,4.8840782769645745,0,2.9166666666666665
184,45569,LITTLE EINSTEINS AFTER - SCHOOL CENTER,1125 W 31ST ST FL 1ST,CHICAGO,IL,60608,26,COOK,17031,41.837941,-87.654611,CHILD DAY CARE CENTERS,POINT (-87.654611 41.837941),908,17,031,600900,17031600900,41.83651292219009,-87.65314280651633,0.12442350086876851,0.728,2.8666666666666667,5.850984700774763,0,2.8666666666666667
185,44579,GADS HILL CENTER,4255 S ARCHER AVE,CHICAGO,IL,60632,123,COOK,17031,41.81592,-87.7009,CHILD DAY CARE CENTERS,POINT (-87.7009 41.81592),2255,17,031,580502,17031580502,41.8145617095003,-87.69931021606457,0.12467134188663523,2.34,7.066666666666666,18.76934959220847,0,7.066666666666666
186,46090,RAVENSWOOD COMMUNITY CHILD CARE CENTER,4908 N DAMEN AVE,CHICAGO,IL,60625,45,COOK,17031,41.97077,-87.67931,CHILD DAY CARE CENTERS,POINT (-87.67931 41.97077),2197,17,031,040402,17031040402,41.97254500870538,-87.67881808321181,0.12535172715346274,0.216,0.8166666666666667,1.723151366997604,0,0.8166666666666667
187,45593,TINY TOTS INCORPORATED,2603 N HALSTED ST NUMBER 2611,CHICAGO,IL,60614,67,COOK,17031,41.929381,-87.648912,CHILD DAY CARE CENTERS,POINT (-87.648912 41.929381),1800,17,031,070300,17031070300,41.92904629324018,-87.65131030047525,0.1255656584951743,0.246,1.0833333333333333,1.9591343919042499,0,1.0833333333333333
188,45570,SCHOONER LEARNING ACADEMY,1667 N WESTERN AVE,CHICAGO,IL,60647,57,COOK,17031,41.91217,-87.687271,CHILD DAY CARE CENTERS,POINT (-87.687271 41.91217),1894,17,031,240600,17031240600,41.91213415027697,-87.68971114874037,0.12562452998440288,0.424,2.783333333333333,3.3751370059067476,0,2.783333333333333
189,45446,BRIGHT HORIZONS CENTRAL LOOP,33 N LA SALLE,CHICAGO,IL,60602,52,COOK,17031,41.88283,-87.63239,CHILD DAY CARE CENTERS,POINT (-87.63239 41.88283),2267,17,031,839100,17031839100,41.88102813647396,-87.63274576901246,0.12596962221944538,0.523,2.683333333333333,4.151794621475548,0,2.683333333333333
190,46241,"BRITE NEW MIND DAY CARE CENTER, INC",112 E 51ST ST,CHICAGO,IL,60615,45,COOK,17031,41.80208,-87.62181,CHILD DAY CARE CENTERS,POINT (-87.62181 41.80208),1061,17,031,381800,17031381800,41.803848123278534,-87.62119775847623,0.1263048962222199,2.033,6.766666666666667,16.09597142159204,0,6.766666666666667
191,43835,MOUNT PROSPECT CHILD CARE CENTER,406 E NORTHWEST HWY NUMBER 408,MT PROSPECT,IL,60056,71,COOK,17031,42.06103,-87.93106,CHILD DAY CARE CENTERS,POINT (-87.93106 42.06103),1102,17,031,804901,17031804901,42.05941719368917,-87.93222035539372,0.1264708190135282,2.379,4.216666666666667,18.810663349507728,0,4.216666666666667
192,45678,HYDE PARK LEARNING RESOURCE CENTER,5114 S DORCHESTER AVE,CHICAGO,IL,60615,25,COOK,17031,41.80184,-87.59182,CHILD DAY CARE CENTERS,POINT (-87.59182 41.80184),1629,17,031,410200,17031410200,41.80167085916463,-87.59426506355798,0.12661212417228326,5.359,7.35,42.32612030667709,0,7.35
193,45644,PRAIRIELAND MONTESSORI,2201 W NORTH AVE,CHICAGO,IL,60647,39,COOK,17031,41.910353,-87.682466,CHILD DAY CARE CENTERS,POINT (-87.682466 41.910353),1884,17,031,240500,17031240500,41.91196830212125,-87.68362674010024,0.12669824025390383,0.596,2.0833333333333335,4.704090591989386,0,2.0833333333333335
194,44224,THE CHURCH OF JESUS CHRIST TINY TOTS ELA,15323 TURLINGTON AVE,HARVEY,IL,60426,32,COOK,17031,41.61063,-87.64743,CHILD DAY CARE CENTERS,POINT (-87.64743 41.61063),1093,17,031,827300,17031827300,41.609030556898006,-87.6462204364837,0.12708944377262416,0.562,1.9166666666666667,4.422082458756171,0,1.9166666666666667
195,46393,LITTLE EINSTEINS DAYCARE INC,3735 W FULLERTON AVE,CHICAGO,IL,60647,34,COOK,17031,41.9244,-87.72083,CHILD DAY CARE CENTERS,POINT (-87.72083 41.9244),596,17,031,220701,17031220701,41.926155391496316,-87.72156506290546,0.1271720824026354,1.225,4.166666666666667,9.632617291911345,0,4.166666666666667
196,46393,LITTLE EINSTEINS DAYCARE INC,3735 W FULLERTON AVE,CHICAGO,IL,60647,34,COOK,17031,41.9244,-87.72083,CHILD DAY CARE CENTERS,POINT (-87.72083 41.9244),2351,17,031,220902,17031220902,41.922711188935565,-87.72183572975253,0.12776392050591126,1.225,4.166666666666667,9.587996322822004,0,4.166666666666667
197,45807,LINCOLN PARK COOPERATIVE NURSERY SCHOOL,1753 NORTH FERN COURT,CHICAGO,IL,60614,40,COOK,17031,41.91417,-87.63931,CHILD DAY CARE CENTERS,POINT (-87.63931 41.91417),1473,17,031,071700,17031071700,41.9128666422033,-87.64107172085302,0.1278650677487374,1.817,6.233333333333333,14.210292396438682,0,6.233333333333333
198,44123,DIST. NUMBER 65 C.C. / BESSIE RHODES CHILD CARE,3701 DAVIS,SKOKIE,IL,60076,40,COOK,17031,42.04585,-87.72272,CHILD DAY CARE CENTERS,POINT (-87.72272 42.04585),173,17,031,807100,17031807100,42.044453334438806,-87.72107860744505,0.1282203222249059,0.851,2.4166666666666665,6.6370134252766615,0,2.4166666666666665
199,43787,LET'S PLAY CHILD CARE CENTER,6041 W 26TH ST,CICERO,IL,60804,65,COOK,17031,41.84352,-87.77544,CHILD DAY CARE CENTERS,POINT (-87.77544 41.84352),2716,17,031,814000,17031814000,41.845373894877156,-87.77541922311721,0.12823355422818994,0.304,1.2166666666666666,2.3706743670150168,0,1.2166666666666666
200,45983,CHILDREN'S CREATIVE CENTER,2026 W BELMONT AVE NUMBER 2028,CHICAGO,IL,60618,49,COOK,17031,41.93977,-87.67953,CHILD DAY CARE CENTERS,POINT (-87.67953 41.93977),1580,17,031,051100,17031051100,41.941365177959845,-87.68082663927251,0.12893430338431686,0.711,2.35,5.514436277525843,0,2.35
201,43634,CHARLESTON COMMUNITY EARLY LEARNING CTR,2206 4TH ST,CHARLESTON,IL,61920,109,COLES,17029,39.47538,-88.17697,CHILD DAY CARE CENTERS,POINT (-88.17697 39.47538),554,17,029,000800,17029000800,39.47714320694336,-88.17618501054537,0.12895672191438215,11.085,14.4,85.95907088394843,0,14.4
202,44410,CHILDREN'S WORLD DAYCARE CENTER,5911 N LINCOLN AVE,CHICAGO,IL,60659,86,COOK,17031,41.98873,-87.70412,CHILD DAY CARE CENTERS,POINT (-87.70412 41.98873),669,17,031,020701,17031020701,41.9868915585546,-87.7036896926014,0.1290702540017875,0.236,1.1,1.8284615756371843,0,1.1
203,43745,HAPPY DAYS - DAY CARE,6115 S ARCHER RD,SUMMIT,IL,60501,57,COOK,17031,41.78024,-87.81262,CHILD DAY CARE CENTERS,POINT (-87.81262 41.78024),1162,17,031,820400,17031820400,41.782107700603845,-87.8126326124331,0.1291856293685664,10.883,12.95,84.24311630631003,0,12.95
204,44122,PALATINE PRK DIST PRESCHOOL PARKSIDE,262 E PALATINE RD,PALATINE,IL,60067,20,COOK,17031,42.11036,-88.03721,CHILD DAY CARE CENTERS,POINT (-88.03721 42.11036),1762,17,031,803800,17031803800,42.10902643251211,-88.03544264411438,0.129353704479409,3.372,7.016666666666667,26.068058998161643,0,7.016666666666667
205,43646,BRIGHT HORIZONS AT EVANSTON,1629 ORRINGTON AVE,EVANSTON,IL,60201,307,COOK,17031,42.04754,-87.6805,CHILD DAY CARE CENTERS,POINT (-87.6805 42.04754),334,17,031,809402,17031809402,42.049031214768355,-87.68202897215029,0.12963714096223483,1.656,6.983333333333333,12.77411695219672,0,6.983333333333333
206,45945,CHILDREN'S LEARNING PLACE,3532 N HALSTED ST,CHICAGO,IL,60657,139,COOK,17031,41.94654,-87.64964,CHILD DAY CARE CENTERS,POINT (-87.64964 41.94654),1621,17,031,061800,17031061800,41.94649014196902,-87.64711464642785,0.12996150429352177,2.809,8.6,21.614092690523137,0,8.6
207,45320,CHILDREN'S CORNER CHILD DEVELOPMENT CTR,442 W JOHN GWYNN AVE,PEORIA,IL,61605,88,PEORIA,17143,40.69056,-89.60141,CHILD DAY CARE CENTERS,POINT (-89.60141 40.69056),488,17,143,000900,17143000900,40.68873285416889,-89.60082097225613,0.13009984291015414,2.504,4.966666666666667,19.246756521675753,0,4.966666666666667
208,45447,I HAVE A DREAM LEARNING DAY CARE CENTER,6117 S ASHLAND AVE NUMBER 21,CHICAGO,IL,60636,74,COOK,17031,41.78278,-87.66423,CHILD DAY CARE CENTERS,POINT (-87.66423 41.78278),1339,17,031,670700,17031670700,41.78306861925133,-87.66673146104185,0.13055161986698366,1.979,4.983333333333333,15.158754843611762,0,4.983333333333333
209,45362,IRVING PARK INFANT TODDLER CENTER,3000 W MONTROSE AVE NUMBER 3006,CHICAGO,IL,60618,55,COOK,17031,41.96129,-87.70335,CHILD DAY CARE CENTERS,POINT (-87.70335 41.96129),2353,17,031,160601,17031160601,41.959397988057965,-87.70329357642916,0.13089771736006126,0.383,1.3166666666666667,2.9259486546008993,0,1.3166666666666667
210,46103,WEE CARE PRESCHOOL,2816 N PINE GROVE AVE,CHICAGO,IL,60657,90,COOK,17031,41.9335,-87.64175,CHILD DAY CARE CENTERS,POINT (-87.64175 41.9335),597,17,031,063302,17031063302,41.93476467345397,-87.63985399663768,0.13103167631893442,1.471,5.75,11.226293071452043,0,5.75
211,44014,CHILDTIME / ST. FRANCIS HOSPITAL,355 RIDGE AVENUE,EVANSTON,IL,60202,133,COOK,17031,42.02419,-87.68511,CHILD DAY CARE CENTERS,POINT (-87.68511 42.02419),986,17,031,810200,17031810200,42.022822317998916,-87.68334026409552,0.13121674293403696,0.796,2.3833333333333333,6.066299027100159,0,2.3833333333333333
212,43720,THE LITTLE BLUE BEAR,675 E ALGONQUIN RD,DES PLAINES,IL,60016,66,COOK,17031,42.030728,-87.907333,CHILD DAY CARE CENTERS,POINT (-87.907333 42.030728),653,17,031,770601,17031770601,42.029145227792604,-87.90874246490115,0.13125885399843273,5.532,8.116666666666667,42.145728318381124,0,8.116666666666667
213,46058,L AND L LV INFANT CORP,1228 W BELMONT AVE,CHICAGO,IL,60657,27,COOK,17031,41.94,-87.66013,CHILD DAY CARE CENTERS,POINT (-87.66013 41.94),1489,17,031,062300,17031062300,41.941627776786994,-87.66144316990932,0.13130445411519806,1.356,3.8666666666666667,10.327143958196064,0,3.8666666666666667
214,45906,HEAVEN'S LEARNING GARDEN INC,7801 S WOLCOTT AVE,CHICAGO,IL,60620,58,COOK,17031,41.75203,-87.67066,CHILD DAY CARE CENTERS,POINT (-87.67066 41.75203),1995,17,031,710400,17031710400,41.75391837470353,-87.67093275516022,0.1313700634155135,1.099,3.8666666666666667,8.365680668996458,0,3.8666666666666667
215,46288,BRIGHT HORIZONS AT LAKESHORE EAST,360 E SOUTH WATER ST,CHICAGO,IL,60601,42,COOK,17031,41.88669,-87.61798,CHILD DAY CARE CENTERS,POINT (-87.61798 41.88669),319,17,031,320101,17031320101,41.88493065219858,-87.6170157127858,0.13143025367568598,1.964,5.516666666666667,14.943286991184827,0,5.516666666666667
216,45921,THE NOOK DAYCARE LEAVITT LLC,1943 N LEAVITT ST,CHICAGO,IL,60647,20,COOK,17031,41.91743,-87.68227,CHILD DAY CARE CENTERS,POINT (-87.68227 41.91743),1594,17,031,222200,17031222200,41.91590952789829,-87.68382618099291,0.13219400035635115,0.661,2.6,5.000226925716473,0,2.6
217,46052,LA ESCUELITA NUMERO UNO INC,5400 W FULLERTON AVE,CHICAGO,IL,60639,70,COOK,17031,41.92426,-87.76129,CHILD DAY CARE CENTERS,POINT (-87.76129 41.92426),2345,17,031,190702,17031190702,41.926163042868716,-87.76103953907604,0.13225807646667076,1.242,3.65,9.39073085879172,0,3.65
218,46296,SUNNYSIDE CHILD CARE CENTER,4500 N WINCHESTER,CHICAGO,IL,60640,31,COOK,17031,41.96351,-87.67792,CHILD DAY CARE CENTERS,POINT (-87.67792 41.96351),2022,17,031,830800,17031830800,41.96514132497205,-87.67657749631556,0.1322832932364774,0.491,1.45,3.711730997823433,0,1.45
219,45612,THE GARDNER SCHOOL OF RAVENSWOOD,1525 W WILSON AVE,CHICAGO,IL,60640,196,COOK,17031,41.9649924,-87.6688106,CHILD DAY CARE CENTERS,POINT (-87.6688106 41.9649924),2700,17,031,031900,17031031900,41.96337400998981,-87.6701840556326,0.13236369145670968,0.396,1.4333333333333333,2.991756996513762,0,1.4333333333333333
220,46269,PEACHTREE NURSERY AND LEARNING CENTER,3811 W. FULLERTON,CHICAGO,IL,60647,15,COOK,17031,41.92435,-87.72242,CHILD DAY CARE CENTERS,POINT (-87.72242 41.92435),596,17,031,220701,17031220701,41.926155391496316,-87.72156506290546,0.13239814810183262,1.535,5.266666666666667,11.593817753548722,0,5.266666666666667
221,44884,HINSDALE COVENANT CHURCH NURSERY SCHOOL,412 S GARFIELD ST,HINSDALE,IL,60521,64,DUPAGE,17043,41.79832,-87.9278,CHILD DAY CARE CENTERS,POINT (-87.9278 41.79832),1861,17,043,845300,17043845300,41.7987739298845,-87.9252943133696,0.13296288147466065,1.286,5.45,9.671872222813395,0,5.45
222,45888,"WISE OWL DAYCARE, LLC",2734 W NORTH AVE,CHICAGO,IL,60647,59,COOK,17031,41.91046,-87.69598,CHILD DAY CARE CENTERS,POINT (-87.69598 41.91046),1895,17,031,240700,17031240700,41.912087780791275,-87.69459863700419,0.1331615076741054,0.637,2.2,4.783664672519108,0,2.2
223,43603,NORTHWEST SUBURBAN DAY CARE CENTER,1755 HOWARD AVE,DES PLAINES,IL,60018,36,COOK,17031,42.01658,-87.88087,CHILD DAY CARE CENTERS,POINT (-87.88087 42.01658),1403,17,031,806502,17031806502,42.01651645406299,-87.87827764335154,0.1332885768369353,3.534,6.816666666666666,26.513900019530414,0,6.816666666666666
224,46418,CHILDRENS CTR OF CICERO / BERWYN AT MORTON,2423 AUSTIN BLVD.,CICERO,IL,60804,12,COOK,17031,41.846714,-87.773558,CHILD DAY CARE CENTERS,POINT (-87.773558 41.846714),2716,17,031,814000,17031814000,41.845373894877156,-87.77541922311721,0.13337410364923516,0.549,1.4833333333333334,4.116241346549798,0,1.4833333333333334
225,44736,KINDERCARE LEARNING CENTER NUMBER 300884,745 LONG GROVE DR,AURORA,IL,60504,131,DUPAGE,17043,41.74268,-88.243,CHILD DAY CARE CENTERS,POINT (-88.243 41.74268),2549,17,043,846515,17043846515,41.74208706906886,-88.2405318063381,0.1338201930645808,3.236,5.8,24.181701773799766,0,5.8
226,44768,CHESTERBROOK ACADEMY,2015 S NAPER BLVD,NAPERVILLE,IL,60565,140,DUPAGE,17043,41.73096,-88.11743,CHILD DAY CARE CENTERS,POINT (-88.11743 41.73096),1898,17,043,846201,17043846201,41.73277484563331,-88.11653117738383,0.13382751530574166,6.395,10.45,47.78538991320294,0,10.45
227,45707,BUSY BUMBLE BEE ACADEMY,6450 S COTTAGE GROVE AVE,CHICAGO,IL,60637,79,COOK,17031,41.7771,-87.60585,CHILD DAY CARE CENTERS,POINT (-87.60585 41.7771),1222,17,031,420800,17031420800,41.77690977673586,-87.60325691983384,0.13439959003297133,1.261,2.75,9.382469096004291,0,2.75
228,45589,THE GARDEN OF HEAVEN CHILDCARE ACADEMY,7634 S ASHLAND AVE,CHICAGO,IL,60620,72,COOK,17031,41.754731,-87.663552,CHILD DAY CARE CENTERS,POINT (-87.663552 41.754731),3070,17,031,710300,17031710300,41.75404851434254,-87.66110569972989,0.13476552573056821,0.932,2.216666666666667,6.9157152390984145,0,2.216666666666667
229,45797,THE NURTURE NOOK,2151 W ARMITAGE AVE,CHICAGO,IL,60647,36,COOK,17031,41.91751,-87.68233,CHILD DAY CARE CENTERS,POINT (-87.68233 41.91751),1594,17,031,222200,17031222200,41.91590952789829,-87.68382618099291,0.13485021247020032,1.496,4.6,11.093790455321614,0,4.6
230,46429,PEACHTREE LEARNING CENTER,3817 W FULLERTON AVE,CHICAGO,IL,60647,16,COOK,17031,41.92434,-87.72253,CHILD DAY CARE CENTERS,POINT (-87.72253 41.92434),596,17,031,220701,17031220701,41.926155391496316,-87.72156506290546,0.13502832244623228,1.234,4.016666666666667,9.138823453067587,0,4.016666666666667
231,45922,PINK TOWER MONTESSORI SCHOOL,3420 N ELSTON AVE,CHICAGO,IL,60618,36,COOK,17031,41.943,-87.70395,CHILD DAY CARE CENTERS,POINT (-87.70395 41.943),1671,17,031,210100,17031210100,41.942868114642096,-87.7013309285354,0.13505301837635517,0.212,0.8166666666666667,1.569753882947029,0,0.8166666666666667
232,45784,"FIRST STEP LEARNING DAYCARE, INC.",6401 S ASHLAND AVE,CHICAGO,IL,60636,39,COOK,17031,41.77749,-87.66418,CHILD DAY CARE CENTERS,POINT (-87.66418 41.77749),1982,17,031,671200,17031671200,41.77669927931111,-87.66658225346453,0.13544411199466416,1.23,3.683333333333333,9.081236399914202,0,3.683333333333333
233,44074,STEPPING STONES CHILD CARE,17560 DIXIE HWY,HOMEWOOD,IL,60430,72,COOK,17031,41.56988,-87.66453,CHILD DAY CARE CENTERS,POINT (-87.66453 41.56988),1199,17,031,828401,17031828401,41.56798616015206,-87.66519579884039,0.13544727915563112,1.878,3.4,13.865173311027883,0,3.4
234,45537,KEMIT ACADEMY,5100 S DORCHESTER AVE NUMBER 06,CHICAGO,IL,60615,83,COOK,17031,41.802431,-87.591842,CHILD DAY CARE CENTERS,POINT (-87.591842 41.802431),1629,17,031,410200,17031410200,41.80167085916463,-87.59426506355798,0.13554787815020383,5.295,7.0,39.06368784417624,0,7.0
235,44468,CHILD DEVELOPMENT LABORATORY,1005 W NEVADA ST,URBANA,IL,61801,84,CHAMPAIGN,17019,40.1055,-88.22099,CHILD DAY CARE CENTERS,POINT (-88.22099 40.1055),26,17,019,005901,17019005901,40.1036805049618,-88.22003618817456,0.13558915816032163,2.558,7.05,18.86581519280031,0,7.05
236,45892,SOUTH LOOP MONTESSORI SCHOOL,"47 W POLK ST, STE G15",CHICAGO,IL,60605,57,COOK,17031,41.87189,-87.62902,CHILD DAY CARE CENTERS,POINT (-87.62902 41.87189),730,17,031,839000,17031839000,41.87104359155796,-87.6314011654861,0.1358987862061044,0.463,2.9166666666666665,3.4069472798514417,0,2.9166666666666665
237,45835,SMART LOVE PRESCHOOL,2222 N KEDZIE BLVD,CHICAGO,IL,60647,55,COOK,17031,41.92178,-87.70792,CHILD DAY CARE CENTERS,POINT (-87.70792 41.92178),845,17,031,221100,17031221100,41.92102054216188,-87.71036087537797,0.13616008340321245,1.159,3.716666666666667,8.512039439398988,0,3.716666666666667
238,45784,"FIRST STEP LEARNING DAYCARE, INC.",6401 S ASHLAND AVE,CHICAGO,IL,60636,39,COOK,17031,41.77749,-87.66418,CHILD DAY CARE CENTERS,POINT (-87.66418 41.77749),1983,17,031,671100,17031671100,41.77677708820735,-87.66171593893888,0.1363290442036157,1.23,3.683333333333333,9.022288736675366,0,3.683333333333333
239,45593,TINY TOTS INCORPORATED,2603 N HALSTED ST NUMBER 2611,CHICAGO,IL,60614,67,COOK,17031,41.929381,-87.648912,CHILD DAY CARE CENTERS,POINT (-87.648912 41.929381),1799,17,031,070200,17031070200,41.92907779871671,-87.64629298715856,0.1363924676639114,0.246,1.0833333333333333,1.8036186617443986,0,1.0833333333333333
240,45618,THE CHILDRENS GARDEN ACADEMY INC,2600 E 83RD ST,CHICAGO,IL,60617,75,COOK,17031,41.74481,-87.56107,CHILD DAY CARE CENTERS,POINT (-87.56107 41.74481),1176,17,031,460400,17031460400,41.74449055811051,-87.56369222540243,0.13711746191026813,0.945,2.433333333333333,6.891901197955539,0,2.433333333333333
241,45969,THE GARDNER SCHOOL OF CHICAGO,1612 W NORTH AVE,CHICAGO,IL,60622,179,COOK,17031,41.91088,-87.66853,"CHILD DAY CARE, BEFORE OR AFTER SCHOOL, SEPARATE FROM SCHOOLS",POINT (-87.66853 41.91088),1409,17,031,240200,17031240200,41.9124416730476,-87.67018161625874,0.13745863102817463,0.824,3.05,5.994530818738522,0,3.05
242,46337,KIDS AND COMPANY CHICAGO,"1313 WEST RANDOLPH ST, STE 106",CHICAGO,IL,60607,118,COOK,17031,41.88385,-87.6591,CHILD DAY CARE CENTERS,POINT (-87.6591 41.88385),2140,17,031,833000,17031833000,41.885286181998126,-87.65724882210007,0.13767640596082215,0.314,1.1833333333333333,2.280710320760068,0,1.1833333333333333
243,46061,A HAVEN FOR LITTLE ONES 2 CLC,2548 E 79TH ST NUMBER 52,CHICAGO,IL,60649,46,COOK,17031,41.75195,-87.56181,CHILD DAY CARE CENTERS,POINT (-87.56181 41.75195),2305,17,031,431301,17031431301,41.75353016621479,-87.56018712379176,0.13768894100816897,0.469,1.7833333333333334,3.4062285363366587,0,1.7833333333333334
244,43919,DEVONSHIRE CENTER PRE - SCHOOL,4400 GREENWOOD,SKOKIE,IL,60076,80,COOK,17031,42.04402,-87.73713,CHILD DAY CARE CENTERS,POINT (-87.73713 42.04402),1268,17,031,806802,17031806802,42.04437743670691,-87.73976960594518,0.13782074040373576,0.602,2.1333333333333333,4.367992787126851,0,2.1333333333333333
245,45873,MINI ME BUNCH INC,4323 W CERMAK RD,CHICAGO,IL,60623,17,COOK,17031,41.85118,-87.73302,CHILD DAY CARE CENTERS,POINT (-87.73302 41.85118),252,17,031,843400,17031843400,41.84932735622423,-87.7320217532552,0.13807877489493475,0.964,2.2666666666666666,6.981521966236413,0,2.2666666666666666
246,45478,CREATIVE KIDZ LEARNING CENTER INC,5776 N LINCOLN AVE NUMBER 78,CHICAGO,IL,60659,35,COOK,17031,41.9863,-87.70112,CHILD DAY CARE CENTERS,POINT (-87.70112 41.9863),669,17,031,020701,17031020701,41.9868915585546,-87.7036896926014,0.13830462477187655,0.721,2.45,5.213130082882168,0,2.45
247,44935,THE LITTLE SHEPHERD DAY SCHOOL CENTER,1020 WEST JEFFERSON AVENUE,NAPERVILLE,IL,60540,104,DUPAGE,17043,41.77336,-88.16362,CHILD DAY CARE CENTERS,POINT (-88.16362 41.77336),2990,17,043,846504,17043846504,41.771564247943445,-88.16243265107082,0.13848812180712583,1.017,3.0,7.343590098047461,0,3.0
248,44638,CHILD DEVELOPMENT AND FAMILY CENTER,CAMPUS CHILD CARE CENTER,DEKALB,IL,60115,143,DEKALB,17037,41.93313,-88.772,CHILD DAY CARE CENTERS,POINT (-88.772 41.93313),716,17,037,002200,17037002200,41.93423119743873,-88.7697484154462,0.1386499786406728,12.288,11.633333333333333,88.62605043629867,0,11.633333333333333
249,46334,KALEIDO KIDS,2157 N DAMEN AVE NUMBER 1B,CHICAGO,IL,60647,70,COOK,17031,41.92122,-87.67747,CHILD DAY CARE CENTERS,POINT (-87.67747 41.92122),2136,17,031,832200,17031832200,41.92048003335367,-87.67997459689116,0.13868924411917555,0.325,1.1166666666666667,2.343368457042911,0,1.1166666666666667
250,45345,ST VINCENT DE PAUL CENTER,2145 N HALSTED ST,CHICAGO,IL,60614,468,COOK,17031,41.92081,-87.64853,CHILD DAY CARE CENTERS,POINT (-87.64853 41.92081),1876,17,031,071200,17031071200,41.92185477579139,-87.6462106452491,0.1395357705840918,0.311,1.2166666666666666,2.2288191672871047,0,1.2166666666666666
251,45875,UCHICAGO CHILD DEVELOPMENT CENTER STONY,5824 S STONY ISLAND AVE,CHICAGO,IL,60637,122,COOK,17031,41.78943,-87.58736,CHILD DAY CARE CENTERS,POINT (-87.58736 41.78943),1174,17,031,411100,17031411100,41.790455289066664,-87.58970081603708,0.14000677216227025,5.176,7.566666666666666,36.96964025426518,0,7.566666666666666
252,44413,TWEETY DEE'S DAYCARE CENTER INC,7322 S DAMEN AVE,CHICAGO,IL,60636,16,COOK,17031,41.76044,-87.67365,CHILD DAY CARE CENTERS,POINT (-87.67365 41.76044),911,17,031,672000,17031672000,41.7611983245043,-87.67112812678796,0.14028816887894463,1.212,3.0166666666666666,8.63936003787918,0,3.0166666666666666
253,45393,BRIGHT BEGINNINGS LEARNING CENTER,"540 N COMMERCIAL ST, STE 180",HARRISBURG,IL,62946,99,SALINE,17165,37.74121,-88.52688,CHILD DAY CARE CENTERS,POINT (-88.52688 37.74121),1997,17,165,955900,17165955900,37.74321798773173,-88.52724781135633,0.14033673889562617,58.362,43.31666666666667,415.8711429328999,0,43.31666666666667
254,46175,SINAI PRESCHOOL,15 W DELAWARE PL,CHICAGO,IL,60610,36,COOK,17031,41.89916,-87.62895,CHILD DAY CARE CENTERS,POINT (-87.62895 41.89916),2199,17,031,081201,17031081201,41.89915380623647,-87.62621204438287,0.1409581981213073,0.651,2.716666666666667,4.618390478003667,0,2.716666666666667
255,43897,FIRST UNITED CHURCH NURSERY SCHOOL,848 LAKE STREET,OAK PARK,IL,60301,100,COOK,17031,41.88871,-87.79578,CHILD DAY CARE CENTERS,POINT (-87.79578 41.88871),2319,17,031,812301,17031812301,41.889147628929685,-87.79845889075361,0.1412209889752811,0.716,2.3833333333333333,5.070067878687116,0,2.3833333333333333
256,45819,REBECCA K. CROWN CHILD DEVELOPMENT CTR,7601 SOUTH PHILLIPS,CHICAGO,IL,60649,104,COOK,17031,41.75697,-87.56476,CHILD DAY CARE CENTERS,POINT (-87.56476 41.75697),2306,17,031,431302,17031431302,41.75838548999829,-87.56278598064895,0.1412782291928411,0.783,2.8833333333333333,5.542255197233718,0,2.8833333333333333
257,45814,MONTESSORI FOUNDATIONS OF CHICAGO INC,2239 W 35TH ST,CHICAGO,IL,60609,111,COOK,17031,41.83006,-87.68168,CHILD DAY CARE CENTERS,POINT (-87.68168 41.83006),2127,17,031,840300,17031840300,41.832097139451776,-87.68188109222346,0.14128426390850196,2.345,5.3,16.59774369153143,0,5.3
258,46350,FIRST START CHILDCARE ACADEMY SOUTH,5700 SOUTH ASHLAND AVENUE,CHICAGO,IL,60636,50,COOK,17031,41.79023,-87.66479,CHILD DAY CARE CENTERS,POINT (-87.66479 41.79023),1333,17,031,670200,17031670200,41.79042479888124,-87.66206265479511,0.1412942216464604,1.801,5.133333333333334,12.74645190025092,0,5.133333333333334
259,44170,MARIS BUMBLE BEE II DAY CARE,17750 CHICAGO AVE,LANSING,IL,60438,113,COOK,17031,41.57314,-87.54449,CHILD DAY CARE CENTERS,POINT (-87.54449 41.57314),1166,17,031,828000,17031828000,41.57323031533828,-87.54176115418674,0.14134151639475706,2.116,4.333333333333333,14.970831316753095,0,4.333333333333333
260,45930,ADLER SCHOOLS INC,2239 W LAWRENCE AVE,CHICAGO,IL,60625,67,COOK,17031,41.96845,-87.6857,CHILD DAY CARE CENTERS,POINT (-87.6857 41.96845),965,17,031,040600,17031040600,41.966833765014,-87.68401804407817,0.14134788057413597,0.488,2.2333333333333334,3.452474830310932,0,2.2333333333333334
261,46341,LEARN AND GROW CHILDCARE INC,2820 W NORTH AVE,CHICAGO,IL,60647,51,COOK,17031,41.91043,-87.69781,CHILD DAY CARE CENTERS,POINT (-87.69781 41.91043),1893,17,031,240800,17031240800,41.912048358589225,-87.6994876390715,0.14137506073938774,0.868,2.3333333333333335,6.139696743261389,0,2.3333333333333335
262,44713,KNOX COUNTY YMCA EARLY LEARNING CENTER,192 E SOUTH ST,GALESBURG,IL,61401,44,KNOX,17095,40.94385,-90.3684,CHILD DAY CARE CENTERS,POINT (-90.3684 40.94385),756,17,095,000800,17095000800,40.94586560090608,-90.36885401078749,0.1414173071586224,11.899,12.833333333333334,84.14104496172695,0,12.833333333333334
263,45708,CHICAGO YOUTH CENTERS - EPSTEIN CENTER,3415 W 13TH PL,CHICAGO,IL,60623,49,COOK,17031,41.86406,-87.71087,CHILD DAY CARE CENTERS,POINT (-87.71087 41.86406),1250,17,031,291200,17031291200,41.86266119850849,-87.71287458655664,0.14150395810397023,1.237,3.45,8.74180494012127,0,3.45
264,45938,GADS HILL CHILD CARE CENTER,2653 W OGDEN AVE,CHICAGO,IL,60608,159,COOK,17031,41.86174,-87.69301,CHILD DAY CARE CENTERS,POINT (-87.69301 41.86174),2058,17,031,843300,17031843300,41.8637638539358,-87.69255031100053,0.14197337958676537,2.008,5.366666666666666,14.14349651916847,0,5.366666666666666
265,45702,"CARE - A - LOT II EARLY LEARNING CENTER, INC",5522 NORTH MILWAUKEE AVENUE,CHICAGO,IL,60630,47,COOK,17031,41.98212,-87.7736,CHILD DAY CARE CENTERS,POINT (-87.7736 41.98212),1814,17,031,110200,17031110200,41.980069905318686,-87.7734443163942,0.14202547299625295,1.474,4.016666666666667,10.378419933436085,0,4.016666666666667
266,43597,STEPPING STONES CHILDREN'S CENTER II LLC,240 DECKER SPRINGS RD,CHARLESTON,IL,61920,77,COLES,17029,39.50136,-88.1958,CHILD DAY CARE CENTERS,POINT (-88.1958 39.50136),553,17,029,000500,17029000500,39.5021436552661,-88.19826054935473,0.14206608423662234,37.17,25.716666666666665,261.6388014051997,0,25.716666666666665
267,46051,BUTLER CHILDREN'S PREPARATORY LTD,17 E PEARSON ST FL 1ST,CHICAGO,IL,60611,36,COOK,17031,41.89733,-87.6275,CHILD DAY CARE CENTERS,POINT (-87.6275 41.89733),2199,17,031,081201,17031081201,41.89915380623647,-87.62621204438287,0.1425135603545038,0.77,4.5,5.402994620895147,0,4.5
268,45635,CONNECTING THE DOTS EARLY LEARNING CTR,7949 S ASHLAND AVE NUMBER A,CHICAGO,IL,60620,58,COOK,17031,41.74892,-87.66314,CHILD DAY CARE CENTERS,POINT (-87.66314 41.74892),1999,17,031,710600,17031710600,41.7476600672117,-87.66094335964127,0.14298264510775727,0.946,3.3666666666666667,6.616187574981969,0,3.3666666666666667
269,45972,TEDDY BEAR NURSERY SCHOOLS INC,3483 W COLUMBUS AVE NUMBER 85,CHICAGO,IL,60652,76,COOK,17031,41.74501,-87.70933,CHILD DAY CARE CENTERS,POINT (-87.70933 41.74501),2222,17,031,700401,17031700401,41.74553710539331,-87.7120354783427,0.14430229726371271,3.11,6.116666666666666,21.551978443672795,0,6.116666666666666
270,43942,PARK RIDGE RECREATION AND PK. DIST.PRE - SCH,2701 SIBLEY,PARK RIDGE,IL,60068,116,COOK,17031,42.01719,-87.86156,CHILD DAY CARE CENTERS,POINT (-87.86156 42.01719),1479,17,031,805801,17031805801,42.01883018281576,-87.86329621657158,0.14432683987556538,3.278,5.5,22.712338209761963,0,5.5
271,45333,A - ZMALL WORLD CHILD DEVELOPMENT CENTER,2629 S LAWNDALE AVE,CHICAGO,IL,60623,24,COOK,17031,41.8435,-87.71718,CHILD DAY CARE CENTERS,POINT (-87.71718 41.8435),2259,17,031,301701,17031301701,41.84248052924663,-87.71962538618997,0.14439438555915657,1.952,7.133333333333334,13.51853115646446,0,7.133333333333334
272,45798,NORTH LAWNDALE YMCA,3449 W ARTHINGTON ST,CHICAGO,IL,60624,267,COOK,17031,41.86994,-87.71184,CHILD DAY CARE CENTERS,POINT (-87.71184 41.86994),1262,17,031,271500,17031271500,41.87178613894252,-87.71315591911576,0.14456539113423333,1.509,4.883333333333334,10.438182943792182,0,4.883333333333334
273,46096,SUNRISE CHILD CARE CENTER,5307 W DIVERSEY AVE,CHICAGO,IL,60639,24,COOK,17031,41.93119,-87.75932,CHILD DAY CARE CENTERS,POINT (-87.75932 41.93119),1920,17,031,190701,17031190701,41.929795910307014,-87.76142166252468,0.14489137697091972,1.054,3.216666666666667,7.274414958535055,0,3.216666666666667
274,45842,SMART FROM THE START ARMITAGE LLC,4135 W ARMITAGE AVE,CHICAGO,IL,60639,111,COOK,17031,41.91692,-87.73044,CHILD DAY CARE CENTERS,POINT (-87.73044 41.91692),2112,17,031,831200,17031831200,41.915321262277516,-87.73225998607661,0.144923051682541,1.279,4.033333333333333,8.825373086965447,0,4.033333333333333
275,44904,MFS - WINNEBAGO - PFA,195 GREENWAY DR,BLOOMINGDALE,IL,60108,20,DUPAGE,17043,41.94146,-88.07038,CHILD DAY CARE CENTERS,POINT (-88.07038 41.94146),2650,17,043,841109,17043841109,41.94038326278329,-88.07280645688407,0.14536614835925094,3.311,5.716666666666667,22.776967246991735,0,5.716666666666667
276,44017,"LE BUNNIES CHILD CARE / LEARNING C., INC.",17750 SOUTH CHICAGO AVENUE,LANSING,IL,60438,96,COOK,17031,41.5731423,-87.5445689,CHILD DAY CARE CENTERS,POINT (-87.5445689 41.5731423),1166,17,031,828000,17031828000,41.57323031533828,-87.54176115418674,0.14541354885693242,2.116,4.333333333333333,14.551601392259965,0,4.333333333333333
277,43876,"IT TAKES A VILLAGE AT RIVER CITY, LLC","800 S WELLS ST, STE 180",CHICAGO,IL,60607,231,COOK,17031,41.87156,-87.63414,CHILD DAY CARE CENTERS,POINT (-87.63414 41.87156),730,17,031,839000,17031839000,41.87104359155796,-87.6314011654861,0.14551615877856328,2.354,5.283333333333333,16.176897602019302,0,5.283333333333333
278,45998,WEE CARE PRESCHOOL TOO,3826 N BROADWAY ST,CHICAGO,IL,60613,92,COOK,17031,41.9523,-87.6505,CHILD DAY CARE CENTERS,POINT (-87.6505 41.9523),2187,17,031,832100,17031832100,41.952821475699565,-87.6532413519096,0.14555417221411773,1.362,4.916666666666667,9.357340839370977,0,4.916666666666667
279,45267,"PRECIOUS LITTLE ONE'S LEARNING CTR., INC",221 E 51ST ST,CHICAGO,IL,60615,57,COOK,17031,41.80188,-87.62016,CHILD DAY CARE CENTERS,POINT (-87.62016 41.80188),1061,17,031,381800,17031381800,41.803848123278534,-87.62119775847623,0.1462681957384061,1.701,4.883333333333334,11.629322365076273,0,4.883333333333334
280,46244,SMART LEARNING EDUCATION CENTER LLC,2705 S ARCHER AVE,CHICAGO,IL,60608,219,COOK,17031,41.84419,-87.65207,CHILD DAY CARE CENTERS,POINT (-87.65207 41.84419),2324,17,031,840200,17031840200,41.84470527654116,-87.64931674379733,0.14627500044909625,0.444,1.5166666666666666,3.0353785584469177,0,1.5166666666666666
281,43846,LEARNING TREE CHILD CARE CENTER LLC,950 BURNHAM AVE,CALUMET CITY,IL,60409,67,COOK,17031,41.60658,-87.53951,CHILD DAY CARE CENTERS,POINT (-87.53951 41.60658),1015,17,031,826100,17031826100,41.60655772617773,-87.53667856850004,0.14644403056681274,1.742,3.033333333333333,11.895329521166385,0,3.033333333333333
282,46047,SONGBIRD ACADEMY,1243 W BELMONT AVE,CHICAGO,IL,60657,57,COOK,17031,41.93958,-87.66072,CHILD DAY CARE CENTERS,POINT (-87.66072 41.93958),1489,17,031,062300,17031062300,41.941627776786994,-87.66144316990932,0.1464446993439247,0.664,2.683333333333333,4.534134748302491,0,2.683333333333333
283,45345,ST VINCENT DE PAUL CENTER,2145 N HALSTED ST,CHICAGO,IL,60614,468,COOK,17031,41.92081,-87.64853,CHILD DAY CARE CENTERS,POINT (-87.64853 41.92081),1873,17,031,071100,17031071100,41.92177782219817,-87.65106140314478,0.14647073343069134,0.311,1.2166666666666666,2.1232910678853294,0,1.2166666666666666
284,45509,"TEENY TINY UNIVERSITY, INCORPORATED",6111 S COTTAGE GROVE AVE,CHICAGO,IL,60637,105,COOK,17031,41.78379,-87.60574,CHILD DAY CARE CENTERS,POINT (-87.60574 41.78379),1662,17,031,420500,17031420500,41.783100254199695,-87.60842612566714,0.14652384490620385,1.141,3.2333333333333334,7.787128441315492,0,3.2333333333333334
285,46077,LITTLE ACHIEVERS,3801 W DIVERSEY AVE,CHICAGO,IL,60647,38,COOK,17031,41.93167,-87.72224,CHILD DAY CARE CENTERS,POINT (-87.72224 41.93167),2561,17,031,210502,17031210502,41.93378462674482,-87.72205243034684,0.14658132385569622,1.148,4.2,7.831829934420313,0,4.2
286,45698,LITTLE FOX DAY CARE CENTER,5014 NORTH LINCOLN,CHICAGO,IL,60625,71,COOK,17031,41.97227,-87.69117,CHILD DAY CARE CENTERS,POINT (-87.69117 41.97227),2196,17,031,040201,17031040201,41.972580482639145,-87.69400051968006,0.14713138979249435,0.334,1.2833333333333334,2.2700798277719962,0,1.2833333333333334
287,45507,CONCORDIA PLACE,3696 N MILWAUKEE AVE,CHICAGO,IL,60641,67,COOK,17031,41.94778,-87.73869,CHILD DAY CARE CENTERS,POINT (-87.73869 41.94778),897,17,031,161100,17031161100,41.94988008664693,-87.73815501479001,0.14784167251808797,1.515,3.9166666666666665,10.247449005385436,0,3.9166666666666665
288,44877,DEARHAVEN CHILDCARE AND LEARNING CENTER,1100 N WESTMORELAND RD,LAKE FOREST,IL,60045,159,LAKE,17097,42.25743,-87.86333,CHILD DAY CARE CENTERS,POINT (-87.86333 42.25743),1562,17,097,863500,17097863500,42.255453585564204,-87.86444138906624,0.14807094306254853,0.491,1.5166666666666666,3.3159780700025014,0,1.5166666666666666
289,45529,MEANINGFUL MILESTONES LLC,2930 N CAMPBELL AVE,CHICAGO,IL,60618,75,COOK,17031,41.93495,-87.69053,CHILD DAY CARE CENTERS,POINT (-87.69053 41.93495),1764,17,031,210900,17031210900,41.93543908937061,-87.69333660157349,0.14831948557244054,1.234,4.266666666666667,8.319877831542934,0,4.266666666666667
290,45746,RED SHED PRESCHOOL,13535 METRIC RD,ROSCOE,IL,61073,20,WINNEBAGO,17201,42.45711,-89.01447,CHILD DAY CARE CENTERS,POINT (-89.01447 42.45711),2807,17,201,004005,17201004005,42.456268099586836,-89.01714795384379,0.1485478485738178,12.57,14.733333333333333,84.61919927270839,0,14.733333333333333
291,43972,LITERKI LEARNING CARE CENTER INC,710 S MILWAUKEE AVE,WHEELING,IL,60090,70,COOK,17031,42.12835,-87.89969,CHILD DAY CARE CENTERS,POINT (-87.89969 42.12835),226,17,031,802506,17031802506,42.12995403669156,-87.89776398218729,0.1485612763346077,2.13,4.75,14.33751817803824,0,4.75
292,45636,KIDS AND COMPANY CHICAGO,657 W FULTON ST,CHICAGO,IL,60661,44,COOK,17031,41.88663,-87.64524,CHILD DAY CARE CENTERS,POINT (-87.64524 41.88663),1276,17,031,280100,17031280100,41.885395855247026,-87.64287809588042,0.14858929330728649,0.36,1.6833333333333333,2.422785599064064,0,1.6833333333333333
293,46243,HENRY'S HOUSE,3655 N BELL AVE,CHICAGO,IL,60618,18,COOK,17031,41.94842,-87.68447,CHILD DAY CARE CENTERS,POINT (-87.68447 41.94842),1476,17,031,050500,17031050500,41.95044743317702,-87.6835072769511,0.1487204723361593,0.926,3.9166666666666665,6.226446066597491,0,3.9166666666666665
294,45980,CHICAGO CHILDRENS HOUSE CHILDCARE LLC,"233 W HURON ST, STE 1A",CHICAGO,IL,60654,103,COOK,17031,41.89455,-87.63548,CHILD DAY CARE CENTERS,POINT (-87.63548 41.89455),1667,17,031,081800,17031081800,41.89326840361561,-87.63780051223728,0.14876978207303965,0.591,3.0,3.972580935218713,0,3.0
295,45532,INSPIRED MINDS DAY CARE LTD,360 E 61ST ST NUMBER 362,CHICAGO,IL,60637,50,COOK,17031,41.78397,-87.61587,CHILD DAY CARE CENTERS,POINT (-87.61587 41.78397),1446,17,031,420600,17031420600,41.78301351215574,-87.6132776944952,0.14917333377940778,1.162,2.1166666666666667,7.789595972416385,0,2.1166666666666667
296,45387,REY GONZALEZ CHILDREN AND FAMILY CENTER,3050 E 92ND ST,CHICAGO,IL,60617,221,COOK,17031,41.72827,-87.54915,CHILD DAY CARE CENTERS,POINT (-87.54915 41.72827),1178,17,031,461000,17031461000,41.72742489097303,-87.54648548712936,0.1494496260133552,0.604,1.8333333333333333,4.041495560156337,0,1.8333333333333333
297,44132,ALL THINGS BRIGHT AND BEAUTIFUL,222 KENILWORTH AVENUE,KENILWORTH,IL,60043,80,COOK,17031,42.09013,-87.71204,CHILD DAY CARE CENTERS,POINT (-87.71204 42.09013),1235,17,031,800600,17031800600,42.08878179063242,-87.71433372810024,0.15019146138593803,0.236,0.36666666666666664,1.5713276761690524,0,0.36666666666666664
298,45673,THE CHILDREN'S PLACE FAMILY CENTER,1800 NORTH HUMBOLDT PARK BLVD.,CHICAGO,IL,60647,89,COOK,17031,41.91403,-87.70251,CHILD DAY CARE CENTERS,POINT (-87.70251 41.91403),1596,17,031,222600,17031222600,41.915638779755255,-87.70447981083757,0.15053689574885082,1.225,4.033333333333333,8.13753992937211,0,4.033333333333333
299,46202,CHICAGO PRESCHOOL ACADEMY,532 E 87TH ST,CHICAGO,IL,60619,48,COOK,17031,41.73679,-87.61066,CHILD DAY CARE CENTERS,POINT (-87.61066 41.73679),1078,17,031,440700,17031440700,41.73475140873609,-87.60962935720156,0.1507048305313083,1.53,4.2,10.152295680277806,0,4.2
300,45249,OTTAWA OPPORTUNITY SCHOOL,114 EAST JEFFERSON STREET,OTTAWA,IL,61350,36,LASALLE,17099,41.34784,-88.841,CHILD DAY CARE CENTERS,POINT (-88.841 41.34784),1289,17,099,962700,17099962700,41.34956944695808,-88.84278813561704,0.15142626587746988,14.327,14.0,94.61370467652573,0,14.0
301,44347,NORTH SHORE UNIVERSITY HEALTH SYSTEM CDC,"1000 CENTRAL ST, STE 100",EVANSTON,IL,60201,84,COOK,17031,42.06419,-87.68508,CHILD DAY CARE CENTERS,POINT (-87.68508 42.06419),2819,17,031,808800,17031808800,42.0654873111338,-87.68270421575193,0.1514408465274485,0.901,2.4,5.9495177203509275,0,2.4
302,46402,JOYFUL NOISE CHRISTIAN DAYCARE INC,4243 N NORTH AVE,CHICAGO,IL,60639,136,COOK,17031,41.90958,-87.73309,CHILD DAY CARE CENTERS,POINT (-87.73309 41.90958),1647,17,031,230500,17031230500,41.91168918010153,-87.7339433798404,0.1523561782864842,0.933,3.7,6.12380810869137,0,3.7
303,44353,HUGS AND SNUGS DAY CARE ACADEMY,550 TORRENCE AVE NUMBER 552,CALUMET CITY,IL,60409,82,COOK,17031,41.61978,-87.55918,CHILD DAY CARE CENTERS,POINT (-87.55918 41.61978),975,17,031,825803,17031825803,41.61924447396716,-87.5620408904382,0.1524967416803078,0.311,1.1,2.0393878359183333,0,1.1
304,43699,"KID'S KINGDOM PRESCHOOL, INC. NEWTON CTR",501 S WALNUT ST,NEWTON,IL,62448,48,JASPER,17079,38.98608,-88.16641,CHILD DAY CARE CENTERS,POINT (-88.16641 38.98608),1096,17,079,977400,17079977400,38.987001458352836,-88.16383119438014,0.15259312310287154,14.687,13.9,96.24942265647628,0,13.9
305,46197,LAKEVIEW PRESCHOOL ACADEMY,3536 N LINCOLN AVE,CHICAGO,IL,60657,16,COOK,17031,41.94604,-87.67339,CHILD DAY CARE CENTERS,POINT (-87.67339 41.94604),1577,17,031,050700,17031050700,41.94507103847245,-87.67605949619478,0.1528141097021617,1.307,4.683333333333334,8.55287514057029,0,4.683333333333334
306,45425,MARY CRANE CENTER NORTH SITE,2905 NORTH LEAVITT,CHICAGO,IL,60618,41,COOK,17031,41.93445,-87.6834,CHILD DAY CARE CENTERS,POINT (-87.6834 41.93445),889,17,031,051400,17031051400,41.93574898367545,-87.68099045068772,0.1531133218613716,1.75,5.7,11.429443099565466,0,5.7
307,45968,CHICAGO MONTESSORI,4300 N HERMITAGE AVE,CHICAGO,IL,60613,10,COOK,17031,41.95994,-87.67271,CHILD DAY CARE CENTERS,POINT (-87.67271 41.95994),1427,17,031,060200,17031060200,41.957903695846,-87.6715174679772,0.15362235679150732,0.952,3.4,6.197014678612385,0,3.4
308,45874,THE PRESCHOOL CENTER AT C.C.C. SOCIETY,5467 S UNIVERSITY AVE,CHICAGO,IL,60615,116,COOK,17031,41.79591,-87.59782,CHILD DAY CARE CENTERS,POINT (-87.59782 41.79591),1119,17,031,410600,17031410600,41.79796875621742,-87.59894215267491,0.15370638833646189,1.277,4.466666666666667,8.308047660352662,0,4.466666666666667
309,46182,KIDS ARE US LEARNING ACADEMY,7457 S BENNETT AVE,CHICAGO,IL,60649,51,COOK,17031,41.75915,-87.57896,CHILD DAY CARE CENTERS,POINT (-87.57896 41.75915),939,17,031,430900,17031430900,41.76064096185784,-87.58118514144213,0.15432227438493135,0.826,2.7666666666666666,5.352435371317039,0,2.7666666666666666
310,44300,BRIGHT MINDS ACADEMY INC,14633 WINCHESTER AVE,HARVEY,IL,60426,55,COOK,17031,41.62325,-87.66396,CHILD DAY CARE CENTERS,POINT (-87.66396 41.62325),1045,17,031,826901,17031826901,41.62104726198575,-87.66447958968416,0.15470817184683944,2.307,4.516666666666667,14.911946618333271,0,4.516666666666667
311,46055,SCHOOL OF SCHOLARS LEARNING CENTER LLC,2246 E 73RD ST NUMBER 50,CHICAGO,IL,60649,36,COOK,17031,41.76276,-87.56935,CHILD DAY CARE CENTERS,POINT (-87.56935 41.76276),936,17,031,430600,17031430600,41.76441328813644,-87.57137298777621,0.15482188700695335,0.372,1.5333333333333334,2.4027610513705517,0,1.5333333333333334
312,44581,TIA CORAZONCITO LEARNING AND DAY CARE CTR,2521 S CENTRAL AVE,CICERO,IL,60804,40,COOK,17031,41.84449,-87.76353,CHILD DAY CARE CENTERS,POINT (-87.76353 41.84449),2717,17,031,814100,17031814100,41.84228041373613,-87.76304269210196,0.15488034567791656,1.018,3.5,6.572815908591753,0,3.5
313,45471,LADYBUG AND FRIENDS DCC AND PRESCHOOL LLC,5427 N BROADWAY ST,CHICAGO,IL,60640,93,COOK,17031,41.9809,-87.65968,CHILD DAY CARE CENTERS,POINT (-87.65968 41.9809),199,17,031,030701,17031030701,41.98274528879209,-87.65796585953571,0.15510661216233823,1.766,7.616666666666666,11.385717058610389,0,7.616666666666666
314,45995,REACH HIGHER LEARNING CENTER 2,537 W 28TH ST,CHICAGO,IL,60616,47,COOK,17031,41.84341,-87.64137,CHILD DAY CARE CENTERS,POINT (-87.64137 41.84341),2366,17,031,840100,17031840100,41.841830907910456,-87.63920301190785,0.156197366714978,0.616,2.2333333333333334,3.9437284568570825,0,2.2333333333333334
315,46356,SMART STUFF LEARNING CENTER,3600 S HALSTED ST,CHICAGO,IL,60609,46,COOK,17031,41.82853,-87.64625,CHILD DAY CARE CENTERS,POINT (-87.64625 41.82853),2026,17,031,839900,17031839900,41.827106914145546,-87.64860469297456,0.15626033736276498,1.906,3.8666666666666667,12.197593017959127,0,3.8666666666666667
316,45661,THE CHALKBOARD INC,450 W MENOMONEE ST,CHICAGO,IL,60614,20,COOK,17031,41.91441,-87.63992,CHILD DAY CARE CENTERS,POINT (-87.63992 41.91441),1480,17,031,071600,17031071600,41.91647216752675,-87.64118228526068,0.15673447193129467,1.909,6.583333333333333,12.179834955751277,0,6.583333333333333
317,44894,ST PAUL CHRISTIAN DAY CARE CENTER,545 SOUTH ARDMORE,VILLA PARK,IL,60181,30,DUPAGE,17043,41.87899,-87.97813,CHILD DAY CARE CENTERS,POINT (-87.97813 41.87899),658,17,043,843700,17043843700,41.87703978438622,-87.97972130985961,0.15783482002054752,0.431,1.8,2.7307028952413086,0,1.8
318,45800,SAINT CHRYSOSTOM'S DAY SCHOOL,1424 NORTH DEARBORN,CHICAGO,IL,60610,101,COOK,17031,41.9081,-87.63031,CHILD DAY CARE CENTERS,POINT (-87.63031 41.9081),1423,17,031,080202,17031080202,41.90585893524393,-87.63090096054172,0.15796544650573918,1.87,4.25,11.838031932711687,0,4.25
319,45658,LENORAS PLACE DAYCARE AND LEARNING CT LLC,1459 W 74TH ST,CHICAGO,IL,60636,47,COOK,17031,41.75904,-87.66127,CHILD DAY CARE CENTERS,POINT (-87.66127 41.75904),1992,17,031,671900,17031671900,41.7613256478098,-87.6612802448461,0.1580931959809476,1.059,2.533333333333333,6.698580501387448,0,2.533333333333333
320,44565,HAPPI TIME ON AVONDALE,415 AVONDALE AVENUE,CHAMPAIGN,IL,61821,51,CHAMPAIGN,17019,40.103246,-88.249323,CHILD DAY CARE CENTERS,POINT (-88.249323 40.103246),3019,17,019,000500,17019000500,40.105204728015224,-88.25087990752309,0.1585534998393504,1.603,3.2,10.110152104016574,0,3.2
321,45816,EDISON PARK LUTHERAN CHURCH PRE - SCHOOL,6626 NORTH OLIPHANT AVENUE,CHICAGO,IL,60631,16,COOK,17031,42.00109,-87.81793,CHILD DAY CARE CENTERS,POINT (-87.81793 42.00109),1778,17,031,090300,17031090300,41.99911270572568,-87.81636458416983,0.15867891495752606,0.722,2.816666666666667,4.550068924993969,0,2.816666666666667
322,46344,CORNERSTONE CHRISTIAN SCHOOL,2919 CHICAGO,SOUTH CHICAGO HTS,IL,60411,105,COOK,17031,41.48538,-87.63811,CHILD DAY CARE CENTERS,POINT (-87.63811 41.48538),1739,17,031,829500,17031829500,41.4843250945106,-87.63538916741092,0.15874374745442585,2.524,4.383333333333334,15.89983883128765,0,4.383333333333334
323,46361,ISU CHILD CARE CENTER - 5060,163 TURNER HALL,NORMAL,IL,61761,20,MCLEAN,17113,40.51077,-88.997,CHILD DAY CARE CENTERS,POINT (-88.997 40.51077),567,17,113,000200,17113000200,40.51069260111038,-88.99397906595571,0.1589516977626703,11.155,11.283333333333333,70.1785520822524,0,11.283333333333333
324,43616,ZION LUTHERAN EARLY CHILDHOOD CENTER,17100 69TH AVE,TINLEY PARK,IL,60477,50,COOK,17031,41.57981,-87.78774,CHILD DAY CARE CENTERS,POINT (-87.78774 41.57981),2018,17,031,825303,17031825303,41.58163036401773,-87.78585716783368,0.15919493170975207,5.008,6.6,31.458287938027468,0,6.6
325,44251,BRIGHT HORIZONS,1425 N DAYTON ST,CHICAGO,IL,60642,60,COOK,17031,41.90714,-87.64921,CHILD DAY CARE CENTERS,POINT (-87.64921 41.90714),2155,17,031,842200,17031842200,41.90487781028974,-87.6497922833978,0.15931494745130884,0.356,2.0166666666666666,2.2345674759036886,0,2.0166666666666666
